Comune;Provincia;Regione;Nome;Anno inserimento;Data e ora inserimento;Identificatore in OpenStreetMap;Longitudine;Latitudine
ALTRO;ALTRO;ALTRO;;2014;2014-04-27T13:41:40Z;2820733473;13.6467915;45.9718712999999
ALTRO;ALTRO;ALTRO;;2014;2014-07-16T19:30:06Z;2954482505;12.3934855;46.7437912999999
ALTRO;ALTRO;ALTRO;Al Food;2015;2015-01-25T22:04:17Z;3309646664;9.029066;45.8346104
ALTRO;ALTRO;ALTRO;Burger King;2015;2015-04-19T19:24:03Z;3466042415;8.98161039999999;45.8505364
ALTRO;ALTRO;ALTRO;Cotto e Servito;2015;2015-07-03T18:07:18Z;3633218207;8.91548689999999;45.9226154999999
ALTRO;ALTRO;ALTRO;Istambul Kebab;2015;2015-01-25T14:18:31Z;3050568446;9.0324957;45.8327621999999
ALTRO;ALTRO;ALTRO;Kukaj;2015;2015-03-14T12:50:48Z;3398108304;13.6486582999999;45.9733133
ALTRO;ALTRO;ALTRO;PickNick Ossi;2014;2014-07-08T15:53:03Z;2954437018;12.4199188;46.7475498
ALTRO;ALTRO;ALTRO;Pizza In;2015;2015-01-25T22:04:23Z;3309646644;9.0285873;45.8348816999999
ALTRO;ALTRO;ALTRO;Pizzeria Calimero;2015;2015-03-08T20:17:18Z;3389972653;8.9232393;45.8442415
ALTRO;ALTRO;ALTRO;Pizzeria Reginella;2014;2014-12-26T11:17:17Z;3051936025;8.9801024;45.8404627999999
ALICE SUPERIORE;CITTA' METROPOLITANA DI TORINO;Piemonte;Pasta e Pizza;2014;2014-07-05T07:26:49Z;2931926872;7.7721935;45.4616078999999
ALPIGNANO;CITTA' METROPOLITANA DI TORINO;Piemonte;McDonald's;2014;2014-07-12T22:51:22Z;2917345231;7.5351765;45.1020844
AVIGLIANA;CITTA' METROPOLITANA DI TORINO;Piemonte;;2015;2015-03-08T21:04:18Z;3390056542;7.4008767;45.0832368
BARDONECCHIA;CITTA' METROPOLITANA DI TORINO;Piemonte;B²;2015;2015-08-17T08:56:07Z;3700735139;6.7064731;45.0781447999999
BARDONECCHIA;CITTA' METROPOLITANA DI TORINO;Piemonte;Opplà;2015;2015-08-26T12:52:52Z;3203383593;6.7078018;45.0779786
BRICHERASIO;CITTA' METROPOLITANA DI TORINO;Piemonte;Al Cartoccio;2013;2013-05-15T12:39:08Z;2107793876;7.302328;44.8258915999999
BRICHERASIO;CITTA' METROPOLITANA DI TORINO;Piemonte;La Bussola;2013;2013-05-15T12:39:08Z;2184445046;7.3032856;44.824178
CHIVASSO;CITTA' METROPOLITANA DI TORINO;Piemonte;;2012;2012-09-14T14:49:27Z;1914141342;7.9300965;45.1977724999999
COLLEGNO;CITTA' METROPOLITANA DI TORINO;Piemonte;Istanbul 12;2016;2016-01-15T08:00:25Z;2562731291;7.5627112;45.0720037999999
CUMIANA;CITTA' METROPOLITANA DI TORINO;Piemonte;Zula Food;2015;2015-04-07T15:17:27Z;3442914939;7.4175553;44.9333229
FOGLIZZO;CITTA' METROPOLITANA DI TORINO;Piemonte;Lo Sfizietto;2014;2014-03-06T15:44:05Z;2704141292;7.8218243;45.271036
GROSCAVALLO;CITTA' METROPOLITANA DI TORINO;Piemonte;Alboni;2012;2012-12-20T09:09:05Z;1565976013;7.2939586;45.3763804
GRUGLIASCO;CITTA' METROPOLITANA DI TORINO;Piemonte;McDonald's;2013;2013-03-25T13:25:38Z;1194126644;7.6130165;45.0558251
IVREA;CITTA' METROPOLITANA DI TORINO;Piemonte;Dolce e Salato;2014;2014-01-26T10:46:30Z;2638040690;7.8730153;45.4636238
IVREA;CITTA' METROPOLITANA DI TORINO;Piemonte;Istanbul;2014;2014-02-07T19:56:51Z;1892546699;7.8812565;45.4674194999999
IVREA;CITTA' METROPOLITANA DI TORINO;Piemonte;Rosticceria Cinese Xing Long;2014;2014-02-10T09:58:29Z;2662079362;7.8862356;45.4681372
IVREA;CITTA' METROPOLITANA DI TORINO;Piemonte;Turkish Kebap-Pizza;2014;2014-01-29T16:06:11Z;2642222167;7.8728412;45.4642009
MONCALIERI;CITTA' METROPOLITANA DI TORINO;Piemonte;;2012;2012-04-10T12:31:43Z;1709961468;7.6585759;44.9754561
MONTALENGHE;CITTA' METROPOLITANA DI TORINO;Piemonte;Kebab Shawarna Hot Dog;2014;2014-07-01T21:54:52Z;2942678036;7.8355053;45.3369623999999
PAVONE CANAVESE;CITTA' METROPOLITANA DI TORINO;Piemonte;McDonald's;2010;2010-08-06T16:52:30Z;668234078;7.8528347;45.4451267999999
PIANEZZA;CITTA' METROPOLITANA DI TORINO;Piemonte;Alì Babà;2014;2014-08-29T12:41:16Z;3048893618;7.5486537;45.0997910999999
PIANEZZA;CITTA' METROPOLITANA DI TORINO;Piemonte;Lollipop;2015;2015-11-02T10:32:10Z;3813654503;7.5469174;45.1015214
PIANEZZA;CITTA' METROPOLITANA DI TORINO;Piemonte;Te la do io la pizza;2016;2016-01-15T12:42:26Z;3122080875;7.5468777;45.1015947
PINEROLO;CITTA' METROPOLITANA DI TORINO;Piemonte;Kebab Nour;2012;2012-12-19T12:04:59Z;2074459766;7.3439066;44.8867352999999
PINEROLO;CITTA' METROPOLITANA DI TORINO;Piemonte;McDonald's;2013;2013-08-29T21:59:15Z;2425866562;7.3549825;44.8886691
PINEROLO;CITTA' METROPOLITANA DI TORINO;Piemonte;Pizza Si;2013;2013-01-30T21:16:59Z;2074459768;7.3405654;44.8863011999999
POIRINO;CITTA' METROPOLITANA DI TORINO;Piemonte;;2013;2013-06-25T12:39:40Z;2360411783;7.8458263;44.9204319999999
POIRINO;CITTA' METROPOLITANA DI TORINO;Piemonte;;2013;2013-06-25T13:15:46Z;2360441678;7.8479935;44.9201357
POIRINO;CITTA' METROPOLITANA DI TORINO;Piemonte;;2013;2013-06-26T13:11:48Z;2360396858;7.8415455;44.9213147
POIRINO;CITTA' METROPOLITANA DI TORINO;Piemonte;;2013;2013-06-26T13:52:58Z;2361682057;7.8399542;44.9225038
RIVAROLO CANAVESE;CITTA' METROPOLITANA DI TORINO;Piemonte;Burger Mania;2015;2015-02-10T22:07:31Z;2014727362;7.7331603;45.3176618999999
RIVAROLO CANAVESE;CITTA' METROPOLITANA DI TORINO;Piemonte;La Bottega del ghiottone;2014;2014-04-17T21:22:06Z;2214626451;7.725586;45.3291218
RIVOLI;CITTA' METROPOLITANA DI TORINO;Piemonte;M**Bun;2016;2016-01-16T12:38:40Z;2727276434;7.5205245;45.0721729999999
RIVOLI;CITTA' METROPOLITANA DI TORINO;Piemonte;McDonald's;2013;2013-04-10T16:47:35Z;1588836640;7.5378869;45.0659540999999
RIVOLI;CITTA' METROPOLITANA DI TORINO;Piemonte;Pizza Food;2016;2016-02-05T09:14:11Z;3989556272;7.5151452;45.0774649999999
SAN GIORGIO CANAVESE;CITTA' METROPOLITANA DI TORINO;Piemonte;La Mandragola;2014;2014-07-14T07:41:12Z;2942678039;7.7950105;45.3357214999999
SAN MAURO TORINESE;CITTA' METROPOLITANA DI TORINO;Piemonte;Brek;2008;2008-09-09T17:58:09Z;295397351;7.7418032;45.1214610999999
SAN MAURO TORINESE;CITTA' METROPOLITANA DI TORINO;Piemonte;Girarrosti S. Rita;2016;2016-01-12T08:32:29Z;3941078489;7.7645454;45.100943
SAN MAURO TORINESE;CITTA' METROPOLITANA DI TORINO;Piemonte;Mangia come parli;2014;2014-10-02T21:29:54Z;563679746;7.7510769;45.1074272999999
SAN MAURO TORINESE;CITTA' METROPOLITANA DI TORINO;Piemonte;McDonald's;2008;2008-09-09T18:01:02Z;295397620;7.7416401;45.1215762
SAN MAURO TORINESE;CITTA' METROPOLITANA DI TORINO;Piemonte;Paninoteca;2011;2011-05-10T17:36:37Z;538160370;7.7490061;45.1155642
SAN MAURO TORINESE;CITTA' METROPOLITANA DI TORINO;Piemonte;Poldo;2014;2014-10-02T21:57:40Z;3108206352;7.7607388;45.1057829
SAN MAURO TORINESE;CITTA' METROPOLITANA DI TORINO;Piemonte;Self service Ronchi;2009;2009-10-22T07:02:28Z;538160369;7.7456072;45.1067870999999
SANT'AMBROGIO DI TORINO;CITTA' METROPOLITANA DI TORINO;Piemonte;;2010;2010-10-28T21:44:44Z;968231993;7.3600274;45.0980424999999
SETTIMO TORINESE;CITTA' METROPOLITANA DI TORINO;Piemonte;;2008;2008-09-09T17:59:22Z;295398084;7.7410221;45.1234414999999
SETTIMO TORINESE;CITTA' METROPOLITANA DI TORINO;Piemonte;;2008;2008-09-09T17:59:22Z;295398084;7.7410221;45.1234414999999
SETTIMO TORINESE;CITTA' METROPOLITANA DI TORINO;Piemonte;Da Paoletto;2008;2008-09-09T18:00:40Z;295398131;7.7404814;45.1226118
SETTIMO TORINESE;CITTA' METROPOLITANA DI TORINO;Piemonte;Da Paoletto;2008;2008-09-09T18:00:40Z;295398131;7.7404814;45.1226118
SETTIMO TORINESE;CITTA' METROPOLITANA DI TORINO;Piemonte;La Sibilla;2011;2011-04-14T12:05:11Z;295396990;7.7452364;45.1309443999999
SETTIMO TORINESE;CITTA' METROPOLITANA DI TORINO;Piemonte;La Sibilla;2011;2011-04-14T12:05:11Z;295396990;7.7452364;45.1309443999999
SUSA;CITTA' METROPOLITANA DI TORINO;Piemonte;a' pizz;2014;2014-06-14T12:25:37Z;1914364118;7.0501985;45.1382321999999
SUSA;CITTA' METROPOLITANA DI TORINO;Piemonte;King 1;2015;2015-07-27T09:49:20Z;2728500019;7.048069;45.1386230999999
SUSA;CITTA' METROPOLITANA DI TORINO;Piemonte;King Kebab;2016;2016-02-22T10:10:25Z;2916040418;7.0479735;45.1351883999999
TORINO;CITTA' METROPOLITANA DI TORINO;Piemonte;;2008;2008-09-09T14:20:33Z;295341350;7.7147272;45.0928304999999
TORINO;CITTA' METROPOLITANA DI TORINO;Piemonte;;2012;2012-07-16T10:58:54Z;295340867;7.6990545;45.0927881
TORINO;CITTA' METROPOLITANA DI TORINO;Piemonte;;2012;2012-12-03T18:45:25Z;1467473597;7.6785084;45.0541246
TORINO;CITTA' METROPOLITANA DI TORINO;Piemonte;;2013;2013-01-06T00:20:54Z;2097363617;7.6796634;45.0841172
TORINO;CITTA' METROPOLITANA DI TORINO;Piemonte;;2013;2013-01-06T12:16:47Z;2097854625;7.6796592;45.0887423
TORINO;CITTA' METROPOLITANA DI TORINO;Piemonte;;2014;2014-10-26T15:31:26Z;3150782717;7.6377189;45.0404614999999
TORINO;CITTA' METROPOLITANA DI TORINO;Piemonte;;2014;2014-10-26T16:10:38Z;3150889106;7.6434957;45.0380904
TORINO;CITTA' METROPOLITANA DI TORINO;Piemonte;;2015;2015-02-20T16:11:02Z;1490005280;7.6561218;45.0264876999999
TORINO;CITTA' METROPOLITANA DI TORINO;Piemonte;;2015;2015-04-10T17:55:45Z;3448876168;7.6764092;45.0436765999999
TORINO;CITTA' METROPOLITANA DI TORINO;Piemonte;;2015;2015-10-30T11:41:44Z;3809839685;7.6796414;45.0613816999999
TORINO;CITTA' METROPOLITANA DI TORINO;Piemonte;;2016;2016-01-18T16:25:37Z;3953798706;7.6441424;45.0809681
TORINO;CITTA' METROPOLITANA DI TORINO;Piemonte;Amsterdam Chips;2015;2015-01-10T09:07:24Z;3279922620;7.6811541;45.0725251
TORINO;CITTA' METROPOLITANA DI TORINO;Piemonte;Atef l'Egiziano;2013;2013-10-29T19:18:31Z;2513168170;7.6668299;45.1019261
TORINO;CITTA' METROPOLITANA DI TORINO;Piemonte;Baran Instabul;2012;2012-12-03T18:45:25Z;1467473557;7.6782323;45.0533551999999
TORINO;CITTA' METROPOLITANA DI TORINO;Piemonte;B.eat;2014;2014-08-31T10:32:48Z;3051585934;7.6933019;45.0694688
TORINO;CITTA' METROPOLITANA DI TORINO;Piemonte;BMY;2012;2012-11-13T21:42:38Z;1467593762;7.6813702;45.0590898999999
TORINO;CITTA' METROPOLITANA DI TORINO;Piemonte;Burger King;2012;2012-02-26T13:28:22Z;1648547064;7.6681008;45.0873460999999
TORINO;CITTA' METROPOLITANA DI TORINO;Piemonte;Caldo e freddo;2012;2012-11-13T21:42:38Z;1597861790;7.6793391;45.0609467
TORINO;CITTA' METROPOLITANA DI TORINO;Piemonte;Chiosco Il Rettore;2015;2015-10-20T13:06:12Z;3794287856;7.6970465;45.0726986
TORINO;CITTA' METROPOLITANA DI TORINO;Piemonte;Ciccio;2012;2012-11-13T21:42:38Z;1466778756;7.6846242;45.0588142
TORINO;CITTA' METROPOLITANA DI TORINO;Piemonte;Cono d'Oro;2012;2012-01-19T18:09:34Z;1597870949;7.681762;45.061464
TORINO;CITTA' METROPOLITANA DI TORINO;Piemonte;Cooperativa Gelteria Naturale di San Salvario;2015;2015-02-12T21:22:24Z;3346690750;7.6808933;45.0592790999999
TORINO;CITTA' METROPOLITANA DI TORINO;Piemonte;Focacceria Coco Cabe;2012;2012-11-25T21:26:20Z;2018175894;7.6837825;45.0718427999999
TORINO;CITTA' METROPOLITANA DI TORINO;Piemonte;Focacceria ligure;2015;2015-10-05T21:34:27Z;1167321083;7.6844529;45.0712069
TORINO;CITTA' METROPOLITANA DI TORINO;Piemonte;Focacceria pizzeria caffè Vi Ri;2015;2015-10-08T14:11:18Z;320876265;7.6736336;45.0802686999999
TORINO;CITTA' METROPOLITANA DI TORINO;Piemonte;Gelateria Popolare;2015;2015-02-12T21:19:53Z;3346688944;7.6838798;45.0786191999999
TORINO;CITTA' METROPOLITANA DI TORINO;Piemonte;Hamburgeria;2015;2015-02-13T22:02:23Z;3348713511;7.6473149;45.0652838
TORINO;CITTA' METROPOLITANA DI TORINO;Piemonte;Hanif;2011;2011-10-14T10:59:00Z;1466778758;7.6812904;45.0601294
TORINO;CITTA' METROPOLITANA DI TORINO;Piemonte;Horas;2014;2014-11-27T09:13:42Z;1914340757;7.6827784;45.0584441
TORINO;CITTA' METROPOLITANA DI TORINO;Piemonte;Il Covo dei Golosi;2015;2015-02-15T17:33:13Z;3352481277;7.650579;45.0672404999999
TORINO;CITTA' METROPOLITANA DI TORINO;Piemonte;Isot Kebap;2016;2016-01-16T13:48:19Z;3949941926;7.6421155;45.0794141
TORINO;CITTA' METROPOLITANA DI TORINO;Piemonte;Istanbul;2013;2013-01-05T23:54:22Z;2097331568;7.6811767;45.0866812
TORINO;CITTA' METROPOLITANA DI TORINO;Piemonte;Istanbul;2015;2015-04-28T12:51:25Z;3484028902;7.6438453;45.034564
TORINO;CITTA' METROPOLITANA DI TORINO;Piemonte;Kebab Aladino;2016;2016-01-10T15:52:05Z;3927206676;7.6442609;45.0798141
TORINO;CITTA' METROPOLITANA DI TORINO;Piemonte;Kebab - Pizzeria Osha;2015;2015-06-02T18:39:33Z;2792538239;7.6313302;45.0405196
TORINO;CITTA' METROPOLITANA DI TORINO;Piemonte;La Piadonza;2015;2015-10-20T12:54:24Z;3794278224;7.6955104;45.0724804999999
TORINO;CITTA' METROPOLITANA DI TORINO;Piemonte;L'Hamburgheria di Eataly - Punto Vendita Torino;2013;2013-06-16T08:39:31Z;2347014080;7.6763974;45.0687701
TORINO;CITTA' METROPOLITANA DI TORINO;Piemonte;Mac Donald's;2015;2015-11-26T20:02:08Z;2616637173;7.6330829;45.0940638
TORINO;CITTA' METROPOLITANA DI TORINO;Piemonte;Mamma... Che Pizza!!!;2014;2014-10-24T19:12:56Z;3147953811;7.6506775;45.0518568999999
TORINO;CITTA' METROPOLITANA DI TORINO;Piemonte;M**Bun;2015;2015-02-12T21:05:13Z;1670357317;7.6746755;45.0716030999999
TORINO;CITTA' METROPOLITANA DI TORINO;Piemonte;Mcdonald's;2014;2014-10-10T12:57:44Z;2097854623;7.6704058;45.0767944999999
TORINO;CITTA' METROPOLITANA DI TORINO;Piemonte;McDonald's;2011;2011-07-28T22:24:35Z;644610710;7.6699724;45.0871207
TORINO;CITTA' METROPOLITANA DI TORINO;Piemonte;McDonald's;2012;2012-12-14T09:08:32Z;1370040608;7.6858564;45.0699674999999
TORINO;CITTA' METROPOLITANA DI TORINO;Piemonte;McDonald's;2015;2015-07-01T16:14:15Z;3201520047;7.6782113;45.0616211
TORINO;CITTA' METROPOLITANA DI TORINO;Piemonte;Mc Pant's;2014;2014-10-24T19:12:56Z;3147953818;7.6453534;45.0461237
TORINO;CITTA' METROPOLITANA DI TORINO;Piemonte;Mille e una Notte;2012;2012-12-15T14:40:55Z;2068273490;7.6803461;45.0720353999999
TORINO;CITTA' METROPOLITANA DI TORINO;Piemonte;Mordillo;2012;2012-11-25T21:26:20Z;2018175895;7.6838143;45.0718988
TORINO;CITTA' METROPOLITANA DI TORINO;Piemonte;Newroz;2015;2015-04-23T17:41:16Z;3473618220;7.6573499;45.052919
TORINO;CITTA' METROPOLITANA DI TORINO;Piemonte;Nilo Azzurro;2014;2014-01-23T14:36:42Z;1245593528;7.7018601;45.0950727
TORINO;CITTA' METROPOLITANA DI TORINO;Piemonte;Non solo pizza;2012;2012-12-02T20:36:12Z;1467473576;7.6785558;45.053457
TORINO;CITTA' METROPOLITANA DI TORINO;Piemonte;Piada del Sol;2014;2014-06-27T12:32:20Z;2935406349;7.6548048;45.0657805
TORINO;CITTA' METROPOLITANA DI TORINO;Piemonte;Piadineria Il Quadrifoglio La Caveja;2014;2014-05-29T12:44:23Z;2887122438;7.6552439;45.0670417999999
TORINO;CITTA' METROPOLITANA DI TORINO;Piemonte;Pizza al Taglio;2011;2011-11-02T13:07:18Z;1211839958;7.6545617;45.0657600999999
TORINO;CITTA' METROPOLITANA DI TORINO;Piemonte;Pizza Speedy;2011;2011-11-02T13:07:18Z;1446143791;7.6361602;45.0723953999999
TORINO;CITTA' METROPOLITANA DI TORINO;Piemonte;Pizza Speedy;2014;2014-10-24T19:12:56Z;3147953814;7.6513666;45.0499573999999
TORINO;CITTA' METROPOLITANA DI TORINO;Piemonte;Ramses;2012;2012-11-13T21:42:39Z;1466778767;7.6831228;45.059505
TORINO;CITTA' METROPOLITANA DI TORINO;Piemonte;Romo;2013;2013-12-11T17:11:19Z;1913734830;7.6399279;45.039664
TORINO;CITTA' METROPOLITANA DI TORINO;Piemonte;Star Pizza Kebap;2016;2016-01-14T13:27:13Z;3946017786;7.6426207;45.0761262999999
TORINO;CITTA' METROPOLITANA DI TORINO;Piemonte;Tencuaba;2011;2011-04-12T15:12:51Z;1242071484;7.7331092;45.1188073
TORINO;CITTA' METROPOLITANA DI TORINO;Piemonte;Vecchio Forno Garibaldi;2014;2014-10-24T19:12:56Z;3147953816;7.6497662;45.0489273
TORRE PELLICE;CITTA' METROPOLITANA DI TORINO;Piemonte;Pizza&Crepes;2012;2012-08-27T10:17:34Z;1885078280;7.2205138;44.8204501
VENARIA REALE;CITTA' METROPOLITANA DI TORINO;Piemonte;;2014;2014-01-18T11:17:31Z;2626899051;7.6283947;45.1343346999999
VOLPIANO;CITTA' METROPOLITANA DI TORINO;Piemonte;Oasi Bar;2013;2013-05-07T18:01:43Z;2294956291;7.789966;45.1883145999999
PEZZANA;VERCELLI;Piemonte;Pizzeria Gastronomia Da Max e Luisa;2014;2014-11-15T17:46:36Z;2084794255;8.4853544;45.2621708
SANTHIA';VERCELLI;Piemonte;;2012;2012-08-27T09:26:11Z;1885029628;8.17327719999999;45.3666483
SANTHIA';VERCELLI;Piemonte;Kebap;2014;2014-11-15T17:45:30Z;2156085236;8.1669722;45.3677864
SANTHIA';VERCELLI;Piemonte;La Partenope;2014;2014-11-15T17:45:31Z;1885029552;8.1693171;45.3665921999999
SANTHIA';VERCELLI;Piemonte;Mr. Pizburger;2014;2014-11-15T17:45:34Z;1885029556;8.1730091;45.3665237
SANTHIA';VERCELLI;Piemonte;Pizza Kiss;2014;2014-11-15T17:46:36Z;1885029586;8.1681724;45.3675572
SANTHIA';VERCELLI;Piemonte;Pizza Top 2;2014;2014-11-15T17:46:36Z;1885029587;8.1777911;45.3651928999999
VERCELLI;VERCELLI;Piemonte;...che piadina!!;2015;2015-06-26T11:17:29Z;1795360525;8.4237009;45.3254019
VERCELLI;VERCELLI;Piemonte;Ciao;2014;2014-04-28T15:21:44Z;522519736;8.39357279999999;45.3188164999999
VERCELLI;VERCELLI;Piemonte;La Golosa;2014;2014-04-14T09:31:27Z;2789986674;8.4141557;45.3192220999999
VERCELLI;VERCELLI;Piemonte;Mangia che ti passa;2015;2015-05-09T09:30:47Z;2436890294;8.4254327;45.3246905
VERCELLI;VERCELLI;Piemonte;Pizzò;2013;2013-09-19T21:54:40Z;2464660314;8.4246016;45.3186554999999
VERCELLI;VERCELLI;Piemonte;Pizzò;2013;2013-09-19T22:05:36Z;2464680584;8.4192939;45.3235206
BORGOMANERO;NOVARA;Piemonte;;2012;2012-10-26T17:44:28Z;1984693333;8.500442;45.6616834
CASTELLETTO SOPRA TICINO;NOVARA;Piemonte;Roadhouse;2015;2015-03-09T12:31:52Z;3387731371;8.6056299;45.7201956999999
CRESSA;NOVARA;Piemonte;;2012;2012-10-26T17:44:28Z;1984693307;8.5008175;45.6601237
GARGALLO;NOVARA;Piemonte;Pizzeria Il Panzerotto;2013;2013-02-04T10:41:14Z;2141159555;8.4281933;45.7276882
NOVARA;NOVARA;Piemonte;;2015;2015-02-16T16:33:18Z;3354342581;8.6102345;45.4827909999999
NOVARA;NOVARA;Piemonte;Istanbul Galliate 2;2014;2014-06-23T15:12:44Z;2916091852;8.6372306;45.4316788
NOVARA;NOVARA;Piemonte;McDonalds;2015;2015-11-26T20:09:17Z;2312564385;8.6504498;45.4515950999999
NOVARA;NOVARA;Piemonte;Universo Vegano;2014;2014-09-18T21:15:23Z;2861990558;8.6222035;45.4445942999999
OLEGGIO;NOVARA;Piemonte;;2011;2011-09-01T16:08:02Z;1420199239;8.7026724;45.5889507999999
ROMAGNANO SESIA;NOVARA;Piemonte;McDonald's;2015;2015-09-21T12:21:44Z;3752795499;8.4005467;45.6217697
VARALLO POMBIA;NOVARA;Piemonte;Pronto Pizza;2015;2015-07-07T11:51:40Z;3639143403;8.6321724;45.6664433999999
VICOLUNGO;NOVARA;Piemonte;Autogrill;2015;2015-01-09T13:34:08Z;3278360261;8.4608139;45.4678541999999
VICOLUNGO;NOVARA;Piemonte;Spizzico;2015;2015-01-09T13:34:08Z;3278360061;8.4608877;45.4678025999999
BORGO SAN DALMAZZO;CUNEO;Piemonte;Old Wild West;2014;2014-12-21T13:52:00Z;3246069675;7.5046822;44.3469983999999
CAMERANA;CUNEO;Piemonte;;2013;2013-01-11T19:44:28Z;2106238875;8.1406427;44.446029
CUNEO;CUNEO;Piemonte;McDonald's;2014;2014-08-07T08:19:21Z;1447059175;7.582346;44.3923817
FOSSANO;CUNEO;Piemonte;McDonald's;2012;2012-10-26T21:03:00Z;1974228818;7.7119615;44.5572848999999
MONDOVI';CUNEO;Piemonte;Burger King;2012;2012-04-11T10:48:58Z;1711284755;7.8528508;44.4192353999999
MONDOVI';CUNEO;Piemonte;Mac Donald's;2016;2016-01-05T12:31:16Z;3927102670;7.8491607;44.42015
VILLANOVA MONDOVI';CUNEO;Piemonte;Lo spuntino;2013;2013-10-16T13:15:39Z;1658750737;7.765091;44.3427423999999
VINADIO;CUNEO;Piemonte;;2014;2014-07-09T18:12:43Z;2956114128;7.173715;44.3067417
ASTI;ASTI;Piemonte;Apocalypse Now;2013;2013-03-15T14:41:19Z;1468333787;8.2136263;44.9031731999999
ASTI;ASTI;Piemonte;Best Istanbul 2;2011;2011-10-17T11:22:20Z;1470693071;8.20919;44.899765
ASTI;ASTI;Piemonte;Burger King;2013;2013-01-18T09:08:55Z;1425529811;8.2270477;44.9147848
ASTI;ASTI;Piemonte;Dolce e Salato;2014;2014-08-22T21:09:33Z;3035735947;8.2185016;44.904145
ASTI;ASTI;Piemonte;Gastronomia - Pizza;2015;2015-03-06T22:17:53Z;2920808525;8.20481249999999;44.9103433
ASTI;ASTI;Piemonte;Gina la Piadina;2014;2014-03-31T16:10:11Z;2756445172;8.20436819999999;44.8998066999999
ASTI;ASTI;Piemonte;Gyro Lera - kebab, pizza, specialità greche;2015;2015-03-06T22:23:45Z;3385109210;8.2019701;44.9063205
ASTI;ASTI;Piemonte;Il re della pizza;2011;2011-10-17T10:38:10Z;1468282890;8.2129814;44.8992378
ASTI;ASTI;Piemonte;Le Piramidi;2011;2011-10-15T14:41:45Z;1468282897;8.2096708;44.8965183999999
ASTI;ASTI;Piemonte;Mister Kebab;2011;2011-10-17T11:22:20Z;1470693074;8.20993449999999;44.9017677
ASTI;ASTI;Piemonte;Pizza da asporto;2015;2015-03-06T22:17:49Z;3386755562;8.1985923;44.9066934
ASTI;ASTI;Piemonte;Pizza divina;2014;2014-08-22T15:13:52Z;3034949234;8.2233373;44.9053645999999
ASTI;ASTI;Piemonte;Pizza ok;2011;2011-10-17T17:05:28Z;1470025918;8.204397;44.9013872
ASTI;ASTI;Piemonte;Pizza pazza;2015;2015-09-20T09:43:19Z;1469912766;8.2127812;44.9055222
ASTI;ASTI;Piemonte;Pizza & Pizza;2014;2014-07-13T19:51:23Z;1471198548;8.21044249999999;44.8928062
ASTI;ASTI;Piemonte;Pizzeria Duchessa;2014;2014-08-22T21:09:48Z;1468333819;8.2178521;44.904079
ASTI;ASTI;Piemonte;Pizzeria Roero;2012;2012-01-12T10:38:01Z;1470617317;8.1997993;44.8987174
ASTI;ASTI;Piemonte;Strapizzami;2015;2015-09-16T20:14:55Z;2926404990;8.2017029;44.9085431999999
ASTI;ASTI;Piemonte;Turkish Istanbul;2014;2014-08-22T21:09:34Z;3035735955;8.2180611;44.9040121999999
ALESSANDRIA;ALESSANDRIA;Piemonte;Buggy Pizza;2015;2015-06-19T08:04:02Z;3604598667;8.6775739;44.8865669999999
ALESSANDRIA;ALESSANDRIA;Piemonte;City Istambul;2015;2015-04-15T10:17:38Z;3457136363;8.61308599999999;44.915685
ALESSANDRIA;ALESSANDRIA;Piemonte;Istambul Kebab Tavola Calda;2015;2015-08-06T08:55:07Z;3469177270;8.6256803;44.9113702
ALESSANDRIA;ALESSANDRIA;Piemonte;Istambul Kebap;2015;2015-06-19T08:04:04Z;3604598678;8.6852467;44.8821508999999
ALESSANDRIA;ALESSANDRIA;Piemonte;Italy Giga;2015;2015-07-08T08:49:46Z;3640431748;8.6074287;44.9020823999999
ALESSANDRIA;ALESSANDRIA;Piemonte;Kebap Pizza;2015;2015-07-08T08:49:47Z;3640431749;8.59664519999999;44.8972102999999
ALESSANDRIA;ALESSANDRIA;Piemonte;La Sicilia in Bocca;2015;2015-07-08T08:49:47Z;3640431754;8.6052499;44.9038685
ALESSANDRIA;ALESSANDRIA;Piemonte;La Taverna;2015;2015-07-03T07:48:51Z;3604598681;8.6774055;44.8874433
ALESSANDRIA;ALESSANDRIA;Piemonte;La Voglia Matta;2015;2015-06-22T08:24:14Z;3604667796;8.70991549999999;44.8727670999999
ALESSANDRIA;ALESSANDRIA;Piemonte;La Voglia Matta;2015;2015-06-22T10:38:39Z;3610526358;8.7099083;44.8727823999999
ALESSANDRIA;ALESSANDRIA;Piemonte;McDonald's;2015;2015-07-08T20:59:53Z;3630889916;8.630992;44.9093662
ALESSANDRIA;ALESSANDRIA;Piemonte;Mordeo;2015;2015-04-17T10:35:14Z;3456136068;8.6150376;44.9083151999999
ALESSANDRIA;ALESSANDRIA;Piemonte;Mr Grill;2015;2015-04-15T10:17:40Z;3401765447;8.6149514;44.913108
ALESSANDRIA;ALESSANDRIA;Piemonte;Mr. Pizza;2015;2015-07-08T08:49:47Z;3640431756;8.6041665;44.9011019
ALESSANDRIA;ALESSANDRIA;Piemonte;Panineria La Meuza da Angelo;2015;2015-05-05T07:53:54Z;3469177271;8.6253797;44.9112572
ALESSANDRIA;ALESSANDRIA;Piemonte;Pizza a Go Go;2015;2015-07-29T08:51:42Z;3626662473;8.57696559999999;44.9210106
ALESSANDRIA;ALESSANDRIA;Piemonte;Pizza Ready;2015;2015-04-21T10:27:19Z;2923531578;8.6263708;44.9107549
ALESSANDRIA;ALESSANDRIA;Piemonte;Pizza Roma;2015;2015-06-19T08:04:06Z;3604598691;8.6852552;44.8819291
ALESSANDRIA;ALESSANDRIA;Piemonte;pizzò;2015;2015-07-08T08:49:55Z;3640432678;8.5984626;44.8967122999999
ALESSANDRIA;ALESSANDRIA;Piemonte;Pizzò;2015;2015-04-15T10:17:41Z;3401765456;8.613894;44.9142889999999
ALESSANDRIA;ALESSANDRIA;Piemonte;Planet Pizza;2015;2015-04-29T12:25:39Z;3401523066;8.6165957;44.9116513999999
ALESSANDRIA;ALESSANDRIA;Piemonte;Sapore di Pane;2015;2015-05-06T10:58:28Z;3401523077;8.6135417;44.9115778999999
ALESSANDRIA;ALESSANDRIA;Piemonte;Solofarinata;2012;2012-08-31T13:47:47Z;1891538183;8.6117527;44.9118065999999
CASALE MONFERRATO;ALESSANDRIA;Piemonte;Pizzeria La Lanterna;2015;2015-01-27T10:12:20Z;3143563902;8.45232949999999;45.1309793
NOVI LIGURE;ALESSANDRIA;Piemonte;;2010;2010-12-26T10:42:51Z;1065368199;8.79720539999999;44.7589896
NOVI LIGURE;ALESSANDRIA;Piemonte;;2014;2014-04-20T20:09:51Z;2804698799;8.7840585;44.7619364999999
NOVI LIGURE;ALESSANDRIA;Piemonte;;2014;2014-04-20T20:09:51Z;2804700002;8.783992;44.7622217999999
NOVI LIGURE;ALESSANDRIA;Piemonte;Pizza & Co a domicilio;2014;2014-08-15T22:06:11Z;3019106142;8.8034715;44.7662203
TORTONA;ALESSANDRIA;Piemonte;Kebab;2014;2014-08-09T11:05:19Z;3006668362;8.8617389;44.8992202
TORTONA;ALESSANDRIA;Piemonte;McDonalds;2015;2015-11-26T20:09:15Z;1749592164;8.8820055;44.9076633999999
TORTONA;ALESSANDRIA;Piemonte;Pizza Mania;2014;2014-08-09T11:05:19Z;3006668363;8.863428;44.8961862
AOSTA;AOSTA;Valle d'Aosta;McDonald's Aosta;2012;2012-04-10T08:31:29Z;1709710966;7.3454162;45.7394328
AOSTA;AOSTA;Valle d'Aosta;Pizza Lo Sbrano;2016;2016-01-28T16:33:33Z;3734084064;7.3117412;45.7375921
AYAS;AOSTA;Valle d'Aosta;Pizzeria Mimo e Bebe;2013;2013-01-20T17:49:25Z;1359753637;7.7288054;45.8354210999999
CHAMOIS;AOSTA;Valle d'Aosta;;2014;2014-06-04T09:11:22Z;1374266347;7.6189962;45.8384629
COURMAYEUR;AOSTA;Valle d'Aosta;;2011;2011-01-24T21:57:03Z;1119369281;6.9387444;45.7933293999999
COURMAYEUR;AOSTA;Valle d'Aosta;Chez Croux;2011;2011-01-24T21:56:24Z;1119368166;6.9225507;45.7834069999999
COURMAYEUR;AOSTA;Valle d'Aosta;Courba Dzeleuna;2011;2011-01-24T21:57:00Z;1119369184;6.9380945;45.7984036
VALTOURNENCHE;AOSTA;Valle d'Aosta;Aladin Fast Food;2015;2015-11-07T21:34:58Z;3461745790;7.6288019;45.9328573
VALTOURNENCHE;AOSTA;Valle d'Aosta;Focacceria;2015;2015-11-14T10:29:17Z;3835501557;7.631374;45.9344696
DIANO MARINA;IMPERIA;Liguria;;2013;2013-09-10T14:37:12Z;2452954403;8.0814878;43.9086460999999
IMPERIA;IMPERIA;Liguria;Amelù;2015;2015-03-02T17:40:14Z;1383567185;8.0151502;43.8783441
IMPERIA;IMPERIA;Liguria;Big Pizza;2015;2015-09-26T15:37:23Z;472442538;8.0438198;43.8882552999999
IMPERIA;IMPERIA;Liguria;Kebatis Kebab;2015;2015-09-26T15:08:20Z;3760340915;8.01580659999999;43.877312
IMPERIA;IMPERIA;Liguria;Mondo Pizza D'asporto;2015;2015-09-26T13:34:47Z;3760224190;8.0123659;43.8743717999999
OSPEDALETTI;IMPERIA;Liguria;;2014;2014-09-14T17:11:45Z;3077090053;7.7173441;43.8007543
SAN REMO;IMPERIA;Liguria;Maggiorino;2012;2012-04-24T14:07:42Z;1402782650;7.778616;43.8172454999999
SAN REMO;IMPERIA;Liguria;McDonald's;2012;2012-09-29T22:09:29Z;1402782652;7.7778258;43.8186779999999
VENTIMIGLIA;IMPERIA;Liguria;McDonald's;2012;2012-11-11T22:34:49Z;1982644620;7.6210662;43.7882737999999
CELLE LIGURE;SAVONA;Liguria;;2011;2011-08-13T08:21:38Z;1380921788;8.5522968;44.3461082999999
CELLE LIGURE;SAVONA;Liguria;Creperia Tutti Frutti;2011;2011-08-07T19:35:15Z;1390072656;8.54332149999999;44.3401981
FINALE LIGURE;SAVONA;Liguria;Pizza E Pizza;2015;2015-11-20T18:04:25Z;2862375701;8.32750899999999;44.1762139
FINALE LIGURE;SAVONA;Liguria;Pomo D'oro;2013;2013-12-18T01:04:52Z;1905021258;8.3268907;44.1751527999999
SAVONA;SAVONA;Liguria;;2012;2012-06-04T13:45:15Z;1776057774;8.4463176;44.2846267999999
SAVONA;SAVONA;Liguria;Casa della Panizza;2016;2016-01-25T16:09:31Z;3360338636;8.4828437;44.3088564
SAVONA;SAVONA;Liguria;Ezio Pizzette;2015;2015-04-02T17:49:00Z;3431855676;8.47713579999999;44.3104613
SAVONA;SAVONA;Liguria;Kebab;2015;2015-10-11T02:01:50Z;857589626;8.4757292;44.3044993
SAVONA;SAVONA;Liguria;McDonald's;2015;2015-06-11T10:20:10Z;1883533030;8.4636788;44.2995372
SAVONA;SAVONA;Liguria;Mr. Kebab;2012;2012-10-20T12:46:22Z;1975009540;8.4845156;44.3084813999999
SAVONA;SAVONA;Liguria;Old Wild West;2016;2016-01-13T11:40:13Z;3775719586;8.4623176;44.3000783999999
SAVONA;SAVONA;Liguria;Sapore d'aMare;2016;2016-01-24T20:27:13Z;3908723081;8.4871243;44.3085461
SAVONA;SAVONA;Liguria;Sleek Burger Cafe;2015;2015-10-23T22:08:42Z;3799981867;8.4795046;44.3064201999999
SPOTORNO;SAVONA;Liguria;da Pasquale;2011;2011-10-29T21:42:14Z;1485111831;8.4200211;44.2282822
VADO LIGURE;SAVONA;Liguria;;2012;2012-10-24T01:52:20Z;1980479954;8.4379907;44.2697454999999
VADO LIGURE;SAVONA;Liguria;Pizzeria Rosa dei Venti;2015;2015-04-07T21:18:05Z;1980479845;8.4383965;44.2713526
CAMOGLI;CITTA' METROPOLITANA DI GENOVA;Liguria;Natural bar Soffio di mare;2016;2016-02-21T20:36:48Z;4013485672;9.1540406;44.3496410999999
CAMPOMORONE;CITTA' METROPOLITANA DI GENOVA;Liguria;La voglia di pizza;2013;2013-05-09T19:55:42Z;2297512839;8.8893049;44.5079096999999
CHIAVARI;CITTA' METROPOLITANA DI GENOVA;Liguria;Olga;2013;2013-01-13T22:51:26Z;2109834014;9.3122589;44.3195127999999
GENOVA;CITTA' METROPOLITANA DI GENOVA;Liguria;;2009;2009-12-26T14:36:35Z;570083223;8.966259;44.4057247
GENOVA;CITTA' METROPOLITANA DI GENOVA;Liguria;;2010;2010-03-12T14:12:24Z;664526063;8.9491188;44.4092574
GENOVA;CITTA' METROPOLITANA DI GENOVA;Liguria;;2010;2010-04-02T16:32:56Z;681691093;8.9456102;44.4223641999999
GENOVA;CITTA' METROPOLITANA DI GENOVA;Liguria;;2010;2010-05-10T12:18:41Z;728378537;8.9581096;44.4045112
GENOVA;CITTA' METROPOLITANA DI GENOVA;Liguria;;2010;2010-07-05T08:52:27Z;569130112;8.96152599999999;44.4071374999999
GENOVA;CITTA' METROPOLITANA DI GENOVA;Liguria;;2010;2010-07-05T08:52:27Z;576322817;8.9642782;44.4071229999999
GENOVA;CITTA' METROPOLITANA DI GENOVA;Liguria;;2011;2011-03-07T23:30:49Z;1191880734;8.9365752;44.3978854
GENOVA;CITTA' METROPOLITANA DI GENOVA;Liguria;;2011;2011-10-22T17:32:55Z;1476598706;9.01136009999999;44.3859633
GENOVA;CITTA' METROPOLITANA DI GENOVA;Liguria;;2011;2011-10-23T19:38:55Z;1478177764;8.98339069999999;44.4028189
GENOVA;CITTA' METROPOLITANA DI GENOVA;Liguria;;2011;2011-10-28T19:13:42Z;1483918677;8.8931932;44.428322
GENOVA;CITTA' METROPOLITANA DI GENOVA;Liguria;;2011;2011-10-29T11:47:29Z;668840503;8.9627196;44.4184196
GENOVA;CITTA' METROPOLITANA DI GENOVA;Liguria;;2011;2011-11-16T17:30:45Z;1505394312;8.9491856;44.4013994
GENOVA;CITTA' METROPOLITANA DI GENOVA;Liguria;;2012;2012-03-20T21:16:14Z;1494552960;8.8877168;44.4115589
GENOVA;CITTA' METROPOLITANA DI GENOVA;Liguria;;2012;2012-05-05T15:17:19Z;1741587343;8.9321374;44.4065774999999
GENOVA;CITTA' METROPOLITANA DI GENOVA;Liguria;;2012;2012-05-09T15:36:11Z;1746738290;8.9537958;44.4140791
GENOVA;CITTA' METROPOLITANA DI GENOVA;Liguria;;2012;2012-11-25T19:05:45Z;2032681403;8.8692879;44.4155096
GENOVA;CITTA' METROPOLITANA DI GENOVA;Liguria;;2013;2013-01-07T10:40:47Z;1478177717;8.9835552;44.3930577
GENOVA;CITTA' METROPOLITANA DI GENOVA;Liguria;;2013;2013-05-03T21:13:32Z;2290839481;8.9293527;44.4096145
GENOVA;CITTA' METROPOLITANA DI GENOVA;Liguria;;2013;2013-05-03T21:13:34Z;2290839585;8.9292878;44.4090677
GENOVA;CITTA' METROPOLITANA DI GENOVA;Liguria;;2014;2014-05-01T19:17:05Z;1191880723;8.9325177;44.4063313999999
GENOVA;CITTA' METROPOLITANA DI GENOVA;Liguria;;2015;2015-03-24T16:41:44Z;3416173084;8.9465894;44.4067997
GENOVA;CITTA' METROPOLITANA DI GENOVA;Liguria;;2015;2015-09-24T10:12:47Z;1123654637;8.92919979999999;44.4099378
GENOVA;CITTA' METROPOLITANA DI GENOVA;Liguria;;2015;2015-10-30T12:11:09Z;3809864567;8.935566;44.4034035
GENOVA;CITTA' METROPOLITANA DI GENOVA;Liguria;;2015;2015-12-28T18:23:59Z;3915053572;8.8918982;44.4282122999999
GENOVA;CITTA' METROPOLITANA DI GENOVA;Liguria;A Camuggina;2015;2015-10-21T20:41:43Z;3797410549;8.9438342;44.4068629
GENOVA;CITTA' METROPOLITANA DI GENOVA;Liguria;Al Baraca;2011;2011-02-21T17:41:37Z;1165435620;8.9540665;44.4167504999999
GENOVA;CITTA' METROPOLITANA DI GENOVA;Liguria;Al Bettolino;2015;2015-10-24T21:21:48Z;2258131292;8.9292958;44.409599
GENOVA;CITTA' METROPOLITANA DI GENOVA;Liguria;Aldo Pizze da asporto;2011;2011-12-04T20:55:15Z;1531756967;8.9031876;44.4563874999999
GENOVA;CITTA' METROPOLITANA DI GENOVA;Liguria;Alì Babà cucina indiana - pizza - kebab;2012;2012-11-25T19:05:44Z;2032681362;8.8740971;44.4159732999999
GENOVA;CITTA' METROPOLITANA DI GENOVA;Liguria;Al Rustichetto pizzeria da asporto;2012;2012-10-02T11:38:19Z;1478844010;8.9558452;44.4153032999999
GENOVA;CITTA' METROPOLITANA DI GENOVA;Liguria;Amore a Prima Pizza;2014;2014-10-08T00:52:54Z;567476939;8.9596684;44.4065445999999
GENOVA;CITTA' METROPOLITANA DI GENOVA;Liguria;Antica Sciamadda;2015;2015-10-24T20:11:01Z;2829907830;8.93418089999999;44.4052269
GENOVA;CITTA' METROPOLITANA DI GENOVA;Liguria;Antica Sciamadda torte e farinata;2014;2014-11-26T14:25:02Z;1496310817;8.92876779999999;44.4073978999999
GENOVA;CITTA' METROPOLITANA DI GENOVA;Liguria;Arte Pizza da asporto;2015;2015-10-25T18:20:01Z;3802495423;8.944347;44.4128425999999
GENOVA;CITTA' METROPOLITANA DI GENOVA;Liguria;Baretto Gallese;2015;2015-10-21T20:41:50Z;2271357885;8.9442082;44.4068776
GENOVA;CITTA' METROPOLITANA DI GENOVA;Liguria;Bar Focacceria Ghirindu;2014;2014-10-08T13:06:37Z;3118365045;8.92529;44.4155530999999
GENOVA;CITTA' METROPOLITANA DI GENOVA;Liguria;Big Pizza;2011;2011-10-27T16:49:15Z;1482497668;8.8961749;44.4089834999999
GENOVA;CITTA' METROPOLITANA DI GENOVA;Liguria;Big Pizza;2015;2015-11-08T18:40:40Z;1602501771;8.9857195;44.3927103999999
GENOVA;CITTA' METROPOLITANA DI GENOVA;Liguria;Brivido goloso;2015;2015-03-19T21:26:27Z;2315855214;8.7781265;44.4273712
GENOVA;CITTA' METROPOLITANA DI GENOVA;Liguria;Buratto;2015;2015-10-17T19:02:42Z;2829907852;8.9337675;44.405928
GENOVA;CITTA' METROPOLITANA DI GENOVA;Liguria;Burger;2013;2013-05-22T12:12:24Z;752772594;8.92731249999999;44.4083867
GENOVA;CITTA' METROPOLITANA DI GENOVA;Liguria;Che Pizza;2012;2012-09-23T07:40:05Z;1560393425;9.0290991;44.383141
GENOVA;CITTA' METROPOLITANA DI GENOVA;Liguria;Chez Abdul;2013;2013-05-03T21:13:31Z;2290839430;8.9293527;44.4097081
GENOVA;CITTA' METROPOLITANA DI GENOVA;Liguria;Chicken fish;2014;2014-10-06T16:00:12Z;3115016771;8.8676534;44.4153781999999
GENOVA;CITTA' METROPOLITANA DI GENOVA;Liguria;Chicken Point;2015;2015-10-12T17:06:20Z;3783537690;8.94992749999999;44.4081802999999
GENOVA;CITTA' METROPOLITANA DI GENOVA;Liguria;Chips Amsterdam;2015;2015-10-21T20:41:50Z;1503355312;8.94199429999999;44.4072292
GENOVA;CITTA' METROPOLITANA DI GENOVA;Liguria;Crepes & Yogurt;2015;2015-10-12T17:35:54Z;3783570097;8.94263379999999;44.4070603999999
GENOVA;CITTA' METROPOLITANA DI GENOVA;Liguria;Da Enzo;2011;2011-12-28T23:07:30Z;1566361287;8.8890072;44.4120672
GENOVA;CITTA' METROPOLITANA DI GENOVA;Liguria;Dolce e salato;2015;2015-10-05T16:39:07Z;3773460141;8.95425159999999;44.4100741
GENOVA;CITTA' METROPOLITANA DI GENOVA;Liguria;Don'Cola;2015;2015-10-25T17:41:16Z;3802421814;8.9379308;44.4060624
GENOVA;CITTA' METROPOLITANA DI GENOVA;Liguria;Epoque Pizza da asporto;2013;2013-06-28T13:18:02Z;1704955772;8.8908789;44.4107294
GENOVA;CITTA' METROPOLITANA DI GENOVA;Liguria;Eritrea Huwnet;2014;2014-10-09T15:08:00Z;3120670439;8.932993;44.4098108
GENOVA;CITTA' METROPOLITANA DI GENOVA;Liguria;Farinata Il Buongustaio;2011;2011-02-21T17:41:31Z;1165435481;8.9553217;44.4160599
GENOVA;CITTA' METROPOLITANA DI GENOVA;Liguria;Focaccellini;2012;2012-01-10T21:08:35Z;1585045060;8.8162759;44.4261118
GENOVA;CITTA' METROPOLITANA DI GENOVA;Liguria;Focacceria Cairoli;2015;2015-10-25T17:41:16Z;3802421816;8.93051709999999;44.4121694999999
GENOVA;CITTA' METROPOLITANA DI GENOVA;Liguria;Focacceria Colombo;2016;2016-01-23T18:38:52Z;1475160230;8.95880599999999;44.4071745999999
GENOVA;CITTA' METROPOLITANA DI GENOVA;Liguria;Focacceria Dolce e Salato;2015;2015-12-08T18:54:58Z;3883790316;8.84908;44.4254
GENOVA;CITTA' METROPOLITANA DI GENOVA;Liguria;Focacceria Pizzeria Il pranzo è servito;2010;2010-10-29T17:31:39Z;968929847;8.9442494;44.4061051999999
GENOVA;CITTA' METROPOLITANA DI GENOVA;Liguria;Focacceria Pizzeria Sapori di Genova;2010;2010-10-29T17:31:39Z;968929852;8.944993;44.4061791999999
GENOVA;CITTA' METROPOLITANA DI GENOVA;Liguria;Forever Pizza;2015;2015-10-19T17:37:31Z;3793003988;8.9522732;44.3970898999999
GENOVA;CITTA' METROPOLITANA DI GENOVA;Liguria;Friggitoria Carega;2015;2015-09-24T18:35:30Z;1123654643;8.9288759;44.4109067999999
GENOVA;CITTA' METROPOLITANA DI GENOVA;Liguria;Gastronomia Il Pranzo è servito;2015;2015-04-26T19:57:19Z;3479699130;8.9011309;44.4083844999999
GENOVA;CITTA' METROPOLITANA DI GENOVA;Liguria;Giò Pizza;2015;2015-10-24T21:21:55Z;1487254264;8.9560641;44.4079703
GENOVA;CITTA' METROPOLITANA DI GENOVA;Liguria;Giropizzaaaa;2014;2014-09-27T13:06:22Z;3098598256;8.9498061;44.4085481999999
GENOVA;CITTA' METROPOLITANA DI GENOVA;Liguria;Gnam Gnam;2014;2014-09-27T16:43:51Z;3098894521;9.016981;44.3848589999999
GENOVA;CITTA' METROPOLITANA DI GENOVA;Liguria;Gran Ristoro;2015;2015-10-24T21:21:55Z;2214576228;8.9292908;44.4091967999999
GENOVA;CITTA' METROPOLITANA DI GENOVA;Liguria;Greek Street Food;2016;2016-01-30T10:35:13Z;3977735557;8.92925589999999;44.4094395999999
GENOVA;CITTA' METROPOLITANA DI GENOVA;Liguria;Ham holy burger;2015;2015-10-18T21:27:22Z;3792023010;8.9310877;44.4072993999999
GENOVA;CITTA' METROPOLITANA DI GENOVA;Liguria;HB Gourmet;2014;2014-10-08T13:06:37Z;3118365051;8.92414;44.4161683
GENOVA;CITTA' METROPOLITANA DI GENOVA;Liguria;Henry's waffle;2015;2015-09-23T17:53:34Z;3756148348;8.9446264;44.406801
GENOVA;CITTA' METROPOLITANA DI GENOVA;Liguria;Hostaia San vincenzo;2015;2015-10-21T20:41:50Z;3769739975;8.9438787;44.4068546
GENOVA;CITTA' METROPOLITANA DI GENOVA;Liguria;Hot Pizza;2011;2011-10-19T12:27:49Z;1473038535;8.9538552;44.4093142999999
GENOVA;CITTA' METROPOLITANA DI GENOVA;Liguria;Il Capriccio;2014;2014-08-02T13:52:09Z;1123220471;8.9830587;44.4546271999999
GENOVA;CITTA' METROPOLITANA DI GENOVA;Liguria;Il Kraken;2013;2013-06-05T13:26:41Z;2315856052;8.77790929999999;44.4274459
GENOVA;CITTA' METROPOLITANA DI GENOVA;Liguria;Il Masetto Hamburgeria Nazionale;2015;2015-10-26T13:38:01Z;3801266347;8.932334;44.4066096
GENOVA;CITTA' METROPOLITANA DI GENOVA;Liguria;Il Pomodoro pizza da asporto;2012;2012-03-17T20:51:51Z;1678776416;8.89807459999999;44.4387078
GENOVA;CITTA' METROPOLITANA DI GENOVA;Liguria;Il ristoro dei Grimaldi - pizzeria focacceria fa;2016;2016-02-21T20:53:21Z;4018504289;8.9301302;44.4105181999999
GENOVA;CITTA' METROPOLITANA DI GENOVA;Liguria;Il Tempio della Pizza;2011;2011-10-11T19:25:04Z;1463002325;8.81602159999999;44.4248936999999
GENOVA;CITTA' METROPOLITANA DI GENOVA;Liguria;Innuendo Pizza e Birra;2015;2015-10-17T19:56:12Z;3790676982;8.93244239999999;44.4068314
GENOVA;CITTA' METROPOLITANA DI GENOVA;Liguria;I Tre Moschettieri;2015;2015-10-24T21:22:06Z;2177674955;8.93250669999999;44.4040552
GENOVA;CITTA' METROPOLITANA DI GENOVA;Liguria;J'aime Les Crêpes;2015;2015-10-24T21:22:06Z;1496310892;8.9311965;44.404347
GENOVA;CITTA' METROPOLITANA DI GENOVA;Liguria;Kebab Canneto;2014;2014-05-01T19:16:52Z;2829907826;8.93059689999999;44.407417
GENOVA;CITTA' METROPOLITANA DI GENOVA;Liguria;Kebab La Darsena;2013;2013-02-26T20:51:06Z;768883095;8.92639;44.4133767
GENOVA;CITTA' METROPOLITANA DI GENOVA;Liguria;Kilt 2;2014;2014-07-31T21:52:14Z;2990114659;8.93304419999999;44.4084270999999
GENOVA;CITTA' METROPOLITANA DI GENOVA;Liguria;King fried chicken;2014;2014-10-06T16:00:13Z;3115016800;8.87257499999999;44.4158297
GENOVA;CITTA' METROPOLITANA DI GENOVA;Liguria;Krep! crèperie;2014;2014-02-05T17:01:23Z;2153086795;8.92993549999999;44.4151528
GENOVA;CITTA' METROPOLITANA DI GENOVA;Liguria;La caveja piadineria;2014;2014-10-08T13:06:42Z;2153105424;8.9297912;44.4144791
GENOVA;CITTA' METROPOLITANA DI GENOVA;Liguria;La Cina;2013;2013-05-31T18:25:15Z;2327433456;8.9765061;44.4061050999999
GENOVA;CITTA' METROPOLITANA DI GENOVA;Liguria;La Cucina di Giuditta;2016;2016-01-12T13:38:26Z;3941590082;8.9322999;44.4043131999999
GENOVA;CITTA' METROPOLITANA DI GENOVA;Liguria;La Focacceria di Teobaldo;2014;2014-10-08T13:06:38Z;3118365054;8.924804;44.4158319
GENOVA;CITTA' METROPOLITANA DI GENOVA;Liguria;La Moucca;2015;2015-10-09T19:07:35Z;3779944360;8.94599859999999;44.4032302999999
GENOVA;CITTA' METROPOLITANA DI GENOVA;Liguria;La Pizza di Egizio;2014;2014-09-27T16:43:51Z;3098894522;9.016253;44.3852607
GENOVA;CITTA' METROPOLITANA DI GENOVA;Liguria;La Pizzeria;2015;2015-11-08T20:39:30Z;1666620042;8.9449636;44.4137579
GENOVA;CITTA' METROPOLITANA DI GENOVA;Liguria;Lasani Fast Food;2012;2012-01-31T21:23:34Z;1613528079;8.9567612;44.4144413
GENOVA;CITTA' METROPOLITANA DI GENOVA;Liguria;Le Delizie dell'Amico;2014;2014-08-06T12:22:19Z;894095733;8.9303592;44.407501
GENOVA;CITTA' METROPOLITANA DI GENOVA;Liguria;Le Pizze di Marcello;2015;2015-11-07T20:48:12Z;3823340185;8.96027879999999;44.4165055
GENOVA;CITTA' METROPOLITANA DI GENOVA;Liguria;Lo's;2014;2014-12-30T18:47:57Z;3118365055;8.9293178;44.4120828
GENOVA;CITTA' METROPOLITANA DI GENOVA;Liguria;Lo Scugnizzo pizzeria da asporto;2012;2012-01-10T20:47:40Z;1585013828;8.94815919999999;44.40281
GENOVA;CITTA' METROPOLITANA DI GENOVA;Liguria;Lo Spuntino;2012;2012-06-24T11:49:55Z;559652920;8.97957079999999;44.4542027999999
GENOVA;CITTA' METROPOLITANA DI GENOVA;Liguria;Mac Donald's;2015;2015-11-27T16:43:07Z;3862971199;8.9089326;44.4104103
GENOVA;CITTA' METROPOLITANA DI GENOVA;Liguria;McDonald's;2011;2011-10-21T17:10:35Z;1475146245;8.94425599999999;44.404853
GENOVA;CITTA' METROPOLITANA DI GENOVA;Liguria;McDonald's;2013;2013-12-03T13:09:27Z;2556711838;8.9285371;44.4113757
GENOVA;CITTA' METROPOLITANA DI GENOVA;Liguria;McDonald's;2015;2015-11-25T13:55:55Z;311359528;8.9366573;44.4067399999999
GENOVA;CITTA' METROPOLITANA DI GENOVA;Liguria;Mesopotamia Kebap;2013;2013-02-26T20:51:00Z;2175888047;8.9258639;44.4136912
GENOVA;CITTA' METROPOLITANA DI GENOVA;Liguria;Mi Lindo Ecuador;2013;2013-06-27T22:07:55Z;2363558474;8.927792;44.4060776999999
GENOVA;CITTA' METROPOLITANA DI GENOVA;Liguria;Mordi e Fuggi;2013;2013-03-02T17:15:32Z;2181615531;8.92263769999999;44.4143615999999
GENOVA;CITTA' METROPOLITANA DI GENOVA;Liguria;Mr Big;2014;2014-05-14T12:07:48Z;2857886984;8.9290909;44.4074462999999
GENOVA;CITTA' METROPOLITANA DI GENOVA;Liguria;Mr Kebab;2011;2011-10-19T12:27:49Z;1473038552;8.9531709;44.4078750999999
GENOVA;CITTA' METROPOLITANA DI GENOVA;Liguria;NonSoloChianina;2015;2015-09-06T17:18:58Z;3731915614;8.92934769999999;44.4133427
GENOVA;CITTA' METROPOLITANA DI GENOVA;Liguria;Nonsolopizza;2011;2011-10-23T20:19:09Z;1478224382;8.9655668;44.3942808999999
GENOVA;CITTA' METROPOLITANA DI GENOVA;Liguria;Orient Express;2013;2013-12-16T20:11:52Z;1635105436;8.9307466;44.4093874
GENOVA;CITTA' METROPOLITANA DI GENOVA;Liguria;Orient Express - specialità turche;2015;2015-10-30T12:11:09Z;3809864571;8.9355984;44.4034556
GENOVA;CITTA' METROPOLITANA DI GENOVA;Liguria;Osteria della Marina;2013;2013-02-26T20:51:06Z;894095780;8.9276025;44.4122424999999
GENOVA;CITTA' METROPOLITANA DI GENOVA;Liguria;Panegirico;2015;2015-10-24T19:25:14Z;3801214805;8.94129689999999;44.4064655
GENOVA;CITTA' METROPOLITANA DI GENOVA;Liguria;Panetto perfetto;2015;2015-10-21T20:41:51Z;3783537697;8.949236;44.4037033999999
GENOVA;CITTA' METROPOLITANA DI GENOVA;Liguria;Panineria delle Fontane;2013;2013-07-22T20:22:30Z;2393258249;8.9276237;44.4134864999999
GENOVA;CITTA' METROPOLITANA DI GENOVA;Liguria;Panini e Dintorni;2014;2014-07-02T16:06:54Z;2290839523;8.92929389999999;44.4094516999999
GENOVA;CITTA' METROPOLITANA DI GENOVA;Liguria;Pastaway;2013;2013-07-26T18:54:57Z;2397655721;8.9309067;44.4117139
GENOVA;CITTA' METROPOLITANA DI GENOVA;Liguria;Pastaway;2015;2015-10-24T21:22:08Z;2268209301;8.929294;44.4095105999999
GENOVA;CITTA' METROPOLITANA DI GENOVA;Liguria;PastAway;2013;2013-04-18T06:53:17Z;2271357889;8.9439942;44.4069227
GENOVA;CITTA' METROPOLITANA DI GENOVA;Liguria;Pelle d'oca;2013;2013-06-05T13:31:47Z;2333123225;8.7787146;44.4283328
GENOVA;CITTA' METROPOLITANA DI GENOVA;Liguria;Pizza Club;2011;2011-10-08T12:13:44Z;1458660529;8.86955309999999;44.4151023
GENOVA;CITTA' METROPOLITANA DI GENOVA;Liguria;Pizza & Company;2013;2013-06-04T20:02:01Z;2332233888;8.9520996;44.4042429
GENOVA;CITTA' METROPOLITANA DI GENOVA;Liguria;Pizza da asporto Al Vulcano;2011;2011-10-23T17:39:43Z;1478068832;8.99778719999999;44.3883591
GENOVA;CITTA' METROPOLITANA DI GENOVA;Liguria;Pizza da asporto La bella Sicilia;2014;2014-05-13T13:17:17Z;2855393661;8.90069169999999;44.4571716
GENOVA;CITTA' METROPOLITANA DI GENOVA;Liguria;Pizza Express;2010;2010-09-06T19:31:22Z;899468720;8.92717689999999;44.4232114
GENOVA;CITTA' METROPOLITANA DI GENOVA;Liguria;Pizza Express;2015;2015-12-06T14:36:00Z;1475146390;8.9400212;44.3978224
GENOVA;CITTA' METROPOLITANA DI GENOVA;Liguria;Pizza Farinata Da Domenico;2015;2015-08-26T11:22:46Z;664526075;8.9528411;44.4075287
GENOVA;CITTA' METROPOLITANA DI GENOVA;Liguria;Pizza Farinata Metropoli;2013;2013-07-02T20:47:34Z;2371255541;8.9145182;44.4150777999999
GENOVA;CITTA' METROPOLITANA DI GENOVA;Liguria;Pizzamania;2011;2011-12-05T08:11:18Z;1532499839;8.8931579;44.4307807
GENOVA;CITTA' METROPOLITANA DI GENOVA;Liguria;Pizza of Angels;2013;2013-05-25T16:34:15Z;2319752883;8.9515046;44.3945227
GENOVA;CITTA' METROPOLITANA DI GENOVA;Liguria;Pizza Pazza;2013;2013-06-05T14:53:55Z;2333187691;8.7863186;44.4270744
GENOVA;CITTA' METROPOLITANA DI GENOVA;Liguria;Pizza Point;2009;2009-11-20T19:49:05Z;567526191;8.95523719999999;44.4029427999999
GENOVA;CITTA' METROPOLITANA DI GENOVA;Liguria;Pizza Power (da asporto);2010;2010-08-26T12:04:58Z;880486897;8.9183887;44.4206097
GENOVA;CITTA' METROPOLITANA DI GENOVA;Liguria;Pizza Reale fastfood;2015;2015-05-12T08:46:01Z;2281185544;9.0263749;44.3829515999999
GENOVA;CITTA' METROPOLITANA DI GENOVA;Liguria;Pizzashop;2014;2014-04-12T20:18:22Z;257664873;8.9780456;44.4531214
GENOVA;CITTA' METROPOLITANA DI GENOVA;Liguria;Pizzeria Alta Qualità;2011;2011-10-28T16:53:05Z;1483766029;8.9557853;44.4178749
GENOVA;CITTA' METROPOLITANA DI GENOVA;Liguria;Pizzeria Cavallino Bianco;2012;2012-03-17T20:51:52Z;1678776499;8.9014051;44.4439511
GENOVA;CITTA' METROPOLITANA DI GENOVA;Liguria;Pizzeria da asporto;2014;2014-07-08T08:19:43Z;2315853524;8.77379039999999;44.4279429999999
GENOVA;CITTA' METROPOLITANA DI GENOVA;Liguria;Pizzeria da asporto Al Portico;2015;2015-10-19T17:37:35Z;2828971056;8.9760878;44.4053165999999
GENOVA;CITTA' METROPOLITANA DI GENOVA;Liguria;Pizzeria da asporto 'Al Vulcano';2013;2013-05-25T16:34:20Z;688685381;8.95358139999999;44.3981448999999
GENOVA;CITTA' METROPOLITANA DI GENOVA;Liguria;Pizzeria da asporto Donaver;2011;2011-10-14T12:44:43Z;1466961969;8.9603701;44.4109782999999
GENOVA;CITTA' METROPOLITANA DI GENOVA;Liguria;Pizzeria da asporto Il Mortaio;2014;2014-11-07T21:02:23Z;1478068872;8.9788722;44.4084329
GENOVA;CITTA' METROPOLITANA DI GENOVA;Liguria;Pizzeria da asporto In sciù Besagnu;2015;2015-10-05T16:39:08Z;3773460151;8.9545729;44.4143887999999
GENOVA;CITTA' METROPOLITANA DI GENOVA;Liguria;Pizzeria da asporto 'O Pizzicato;2012;2012-11-25T19:49:14Z;2032779830;8.8731662;44.4161208
GENOVA;CITTA' METROPOLITANA DI GENOVA;Liguria;Pizzeria da asporto U Beppe;2015;2015-11-28T13:20:42Z;3864981559;8.9138498;44.4743953999999
GENOVA;CITTA' METROPOLITANA DI GENOVA;Liguria;Pizzeria da asporto U Stè;2015;2015-11-07T20:48:14Z;1631829885;8.9652208;44.4181468
GENOVA;CITTA' METROPOLITANA DI GENOVA;Liguria;Pizzeria da Kawa;2015;2015-11-11T06:45:23Z;2382575626;8.9136269;44.4202172999999
GENOVA;CITTA' METROPOLITANA DI GENOVA;Liguria;Pizzeria da Luca;2016;2016-01-11T20:43:38Z;569130143;8.9674685;44.408942
GENOVA;CITTA' METROPOLITANA DI GENOVA;Liguria;Pizzeria da Samu;2015;2015-11-01T20:27:37Z;1323354557;8.9712446;44.4201874999999
GENOVA;CITTA' METROPOLITANA DI GENOVA;Liguria;Pizzeria da Silva;2015;2015-10-24T17:13:25Z;3773464257;8.9513922;44.4075696
GENOVA;CITTA' METROPOLITANA DI GENOVA;Liguria;Pizzeria Doppiozero da asporto;2015;2015-11-04T18:13:02Z;3817650660;8.9521938;44.4115856
GENOVA;CITTA' METROPOLITANA DI GENOVA;Liguria;Pizzeria Farinata Derby;2011;2011-02-21T17:41:47Z;945717657;8.9545043;44.416694
GENOVA;CITTA' METROPOLITANA DI GENOVA;Liguria;Pizzeria Filippo;2015;2015-03-30T18:37:05Z;1473038610;8.97026969999999;44.4124675999999
GENOVA;CITTA' METROPOLITANA DI GENOVA;Liguria;Pizzeria Gomez;2010;2010-03-12T14:12:26Z;664526165;8.9553422;44.4123640999999
GENOVA;CITTA' METROPOLITANA DI GENOVA;Liguria;Pizzeria Grattacielo da asporto;2012;2012-01-04T20:03:22Z;1577222272;8.8201119;44.427415
GENOVA;CITTA' METROPOLITANA DI GENOVA;Liguria;Pizzeria La Dama;2014;2014-05-28T12:29:34Z;1473038686;8.9560423;44.4076359
GENOVA;CITTA' METROPOLITANA DI GENOVA;Liguria;Pizzeria Lupin da asporto;2012;2012-03-08T22:39:19Z;1666619947;8.9357307;44.4151821
GENOVA;CITTA' METROPOLITANA DI GENOVA;Liguria;Pizzeria Mandoli;2014;2014-12-23T16:15:21Z;3163152088;8.9482301;44.4205892
GENOVA;CITTA' METROPOLITANA DI GENOVA;Liguria;Pizzeria O sole mio 4 da asporto;2011;2011-10-31T13:14:29Z;1165435653;8.9538135;44.4173242
GENOVA;CITTA' METROPOLITANA DI GENOVA;Liguria;Pizzeria Pluto da asporto;2011;2011-12-05T08:11:18Z;1532499849;8.8930126;44.4440749999999
GENOVA;CITTA' METROPOLITANA DI GENOVA;Liguria;Pizzeria Pulcinella;2012;2012-01-12T11:30:31Z;1586835357;8.9753025;44.405383
GENOVA;CITTA' METROPOLITANA DI GENOVA;Liguria;Pizzeria Snoopy;2014;2014-05-13T16:09:59Z;1531757261;8.89411119999999;44.4503024999999
GENOVA;CITTA' METROPOLITANA DI GENOVA;Liguria;Pizzeria Stè;2013;2013-04-25T21:20:57Z;2281380652;8.9667736;44.4394084999999
GENOVA;CITTA' METROPOLITANA DI GENOVA;Liguria;Pizzeria Stefano;2013;2013-07-06T14:49:21Z;2376150118;8.970489;44.4052282
GENOVA;CITTA' METROPOLITANA DI GENOVA;Liguria;Pizzeria Tapiro 2;2012;2012-05-12T19:45:36Z;1750104272;8.99015679999999;44.3937334
GENOVA;CITTA' METROPOLITANA DI GENOVA;Liguria;Pizzeria Totò;2009;2009-11-17T17:18:27Z;387731857;8.9558977;44.4096343
GENOVA;CITTA' METROPOLITANA DI GENOVA;Liguria;Pizzopoli 2000;2011;2011-12-04T20:55:19Z;1531757090;8.8938488;44.4473381999999
GENOVA;CITTA' METROPOLITANA DI GENOVA;Liguria;PomoDop;2014;2014-05-01T13:10:51Z;2828971041;8.9828438;44.4050742
GENOVA;CITTA' METROPOLITANA DI GENOVA;Liguria;Reza Kebap;2013;2013-05-11T19:26:53Z;2300054945;8.9508939;44.4031199
GENOVA;CITTA' METROPOLITANA DI GENOVA;Liguria;Reza Kebap;2015;2015-11-08T18:40:43Z;1478177716;8.9836986;44.3929808999999
GENOVA;CITTA' METROPOLITANA DI GENOVA;Liguria;Rino's pizzeria kebab da asporto;2016;2016-01-11T21:05:29Z;3940450695;8.94947329999999;44.4162650999999
GENOVA;CITTA' METROPOLITANA DI GENOVA;Liguria;Rocca il Re della Pizza;2014;2014-09-27T16:43:51Z;3098894527;9.0193518;44.3846362999999
GENOVA;CITTA' METROPOLITANA DI GENOVA;Liguria;Rosticceria;2013;2013-08-09T18:08:02Z;2412365679;8.9311334;44.4072083
GENOVA;CITTA' METROPOLITANA DI GENOVA;Liguria;Rosticceria Cinese China Express;2011;2011-05-05T10:04:08Z;1272932336;8.971076;44.3924485
GENOVA;CITTA' METROPOLITANA DI GENOVA;Liguria;Rosticceria Gastronomia La Cina;2015;2015-10-16T19:48:24Z;3789505050;8.9557224;44.4132237999999
GENOVA;CITTA' METROPOLITANA DI GENOVA;Liguria;Rosticceria Maddalena;2013;2013-11-22T09:27:29Z;2544183707;8.9307005;44.4110421
GENOVA;CITTA' METROPOLITANA DI GENOVA;Liguria;Sabor Caribe;2013;2013-06-27T22:07:56Z;2363558478;8.9278353;44.4059698
GENOVA;CITTA' METROPOLITANA DI GENOVA;Liguria;Sale e Farina;2014;2014-05-01T13:10:51Z;2828971042;8.9871195;44.4073149999999
GENOVA;CITTA' METROPOLITANA DI GENOVA;Liguria;Spizzico & Burger King;2012;2012-10-20T03:01:30Z;1974520708;8.8807144;44.4134277
GENOVA;CITTA' METROPOLITANA DI GENOVA;Liguria;Strakkino;2015;2015-10-12T17:35:54Z;3783570104;8.9378189;44.4059164
GENOVA;CITTA' METROPOLITANA DI GENOVA;Liguria;Street Food;2015;2015-10-12T17:35:54Z;3783570105;8.9425744;44.407068
GENOVA;CITTA' METROPOLITANA DI GENOVA;Liguria;Torte pizzeria farinata Da Mauro;2011;2011-11-06T00:05:10Z;1478844090;8.9593038;44.4163385
GENOVA;CITTA' METROPOLITANA DI GENOVA;Liguria;Tortman;2012;2012-10-23T19:51:21Z;1979816599;9.0189787;44.4495142
GENOVA;CITTA' METROPOLITANA DI GENOVA;Liguria;Uno alla volta;2015;2015-09-27T15:01:17Z;3761527533;8.9666245;44.4046396999999
GENOVA;CITTA' METROPOLITANA DI GENOVA;Liguria;Voglie di Pizza;2014;2014-09-22T07:27:39Z;3090263559;8.7809787;44.4275407
GENOVA;CITTA' METROPOLITANA DI GENOVA;Liguria;X Pizza;2012;2012-01-13T18:35:32Z;1588634108;8.82926559999999;44.42634
GENOVA;CITTA' METROPOLITANA DI GENOVA;Liguria;Zena Kebab;2012;2012-11-22T22:48:27Z;2027148433;8.8882291;44.4132101
GENOVA;CITTA' METROPOLITANA DI GENOVA;Liguria;Zena Sandwich;2013;2013-09-02T12:00:00Z;2258131296;8.9261158;44.4123166999999
GENOVA;CITTA' METROPOLITANA DI GENOVA;Liguria;Zena Sandwich;2013;2013-10-27T18:20:44Z;2510637149;8.89324429999999;44.4315653999999
GENOVA;CITTA' METROPOLITANA DI GENOVA;Liguria;Zimino;2014;2014-06-26T13:02:56Z;2934215787;8.9301694;44.4086652
MONEGLIA;CITTA' METROPOLITANA DI GENOVA;Liguria;Pizza la Metri;2012;2012-09-17T18:25:21Z;1918975514;9.4884968;44.2396317999999
RAPALLO;CITTA' METROPOLITANA DI GENOVA;Liguria;Bar Ivano;2015;2015-11-01T18:13:49Z;3591375584;9.25372849999999;44.3690636999999
RAPALLO;CITTA' METROPOLITANA DI GENOVA;Liguria;Take Away Al Faraone;2010;2010-06-06T08:01:31Z;765553403;9.22503;44.3514624999999
RECCO;CITTA' METROPOLITANA DI GENOVA;Liguria;Tossini;2013;2013-05-26T17:32:54Z;671180125;9.1425068;44.3619163999999
SANT'OLCESE;CITTA' METROPOLITANA DI GENOVA;Liguria;Anna e Silvio di Lucio Vario;2015;2015-11-30T00:19:26Z;3868308441;8.9222546;44.477752
SERRA RICCO';CITTA' METROPOLITANA DI GENOVA;Liguria;;2007;2007-11-02T21:07:36Z;96047679;8.9408946;44.5294348999999
SESTRI LEVANTE;CITTA' METROPOLITANA DI GENOVA;Liguria;Ambaradan;2011;2011-01-26T09:32:36Z;1121350242;9.39437689999999;44.2704539
SESTRI LEVANTE;CITTA' METROPOLITANA DI GENOVA;Liguria;Autogrill Riviera Sud;2015;2015-01-27T20:23:24Z;1360305797;9.41969259999999;44.2750747999999
SORI;CITTA' METROPOLITANA DI GENOVA;Liguria;Focaccia d'autore;2015;2015-10-21T19:49:09Z;3797345292;9.1050587;44.3729341
BONASSOLA;LA SPEZIA;Liguria;;2012;2012-07-01T14:23:21Z;1808838076;9.581201;44.1843249
BRUGNATO;LA SPEZIA;Liguria;Autogrill Brugnato Est;2015;2015-01-11T23:00:16Z;942829865;9.7309448;44.2270700999999
BRUGNATO;LA SPEZIA;Liguria;Autogrill Brugnato Ovest;2015;2015-01-11T23:00:17Z;1362037562;9.7298189;44.2261748999999
LA SPEZIA;LA SPEZIA;Liguria;;2013;2013-12-29T14:46:24Z;2599699183;9.847543;44.1212311
LA SPEZIA;LA SPEZIA;Liguria;McDonald's Le Terrazze;2013;2013-05-15T13:22:59Z;2305069512;9.8327808;44.1194484
LA SPEZIA;LA SPEZIA;Liguria;Pollo Campero;2013;2013-05-15T13:17:00Z;1936591049;9.832738;44.1194771999999
LERICI;LA SPEZIA;Liguria;;2015;2015-02-20T00:04:59Z;3360555408;9.9097302;44.0698057999999
LEVANTO;LA SPEZIA;Liguria;;2013;2013-08-09T20:39:38Z;2412522766;9.6120266;44.1681458999999
LEVANTO;LA SPEZIA;Liguria;7 Oblo;2013;2013-11-21T10:04:27Z;2331724014;9.6131702;44.1694941
LEVANTO;LA SPEZIA;Liguria;Focacceria Dome;2012;2012-07-01T14:12:50Z;1808831364;9.6123913;44.1690471
LEVANTO;LA SPEZIA;Liguria;Gelateria Il Porticciolo;2012;2012-07-01T13:53:13Z;1758873714;9.6099378;44.1690451999999
SARZANA;LA SPEZIA;Liguria;;2015;2015-10-27T17:24:46Z;3805470411;9.957869;44.1116552
VEZZANO LIGURE;LA SPEZIA;Liguria;Autogrill Magra Est;2015;2015-01-11T23:00:17Z;401277055;9.9174048;44.1377129999999
BARDELLO;VARESE;Lombardia;Jasmin;2013;2013-10-15T20:17:21Z;2037941222;8.6978306;45.834795
BESOZZO;VARESE;Lombardia;Alambicco;2011;2011-05-19T07:19:54Z;1291380316;8.66537879999999;45.8450939
BESOZZO;VARESE;Lombardia;Istambul Kebab;2015;2015-12-17T12:55:27Z;3491828170;8.6636194;45.8442189
BIANDRONNO;VARESE;Lombardia;pizzevia;2016;2016-01-14T11:44:18Z;3945837757;8.709871;45.8106397
BUSTO ARSIZIO;VARESE;Lombardia;;2015;2015-11-22T17:20:12Z;3851956934;8.8481594;45.6112595999999
BUSTO ARSIZIO;VARESE;Lombardia;McDonald's;2013;2013-06-06T08:59:25Z;1912527949;8.854849;45.6126968
BUSTO ARSIZIO;VARESE;Lombardia;Piada Burger;2015;2015-11-22T14:50:25Z;3851735368;8.85414409999999;45.6123215
BUSTO ARSIZIO;VARESE;Lombardia;Superpizza;2015;2015-06-13T18:46:21Z;2365104914;8.829388;45.6315543999999
BUSTO ARSIZIO;VARESE;Lombardia;Turkish Kebap;2015;2015-09-10T22:46:22Z;3738235679;8.84491489999999;45.6138223999999
BUSTO ARSIZIO;VARESE;Lombardia;Turkish Kebap;2015;2015-11-22T16:36:35Z;3851863858;8.8546416;45.611108
CARONNO PERTUSELLA;VARESE;Lombardia;Burger King;2015;2015-06-04T07:00:58Z;3571078301;9.0513786;45.5901848999999
CASORATE SEMPIONE;VARESE;Lombardia;;2014;2014-10-10T16:31:40Z;2298439394;8.7498441;45.671671
CASTELLANZA;VARESE;Lombardia;Il paradiso dei golosi;2012;2012-09-14T10:31:21Z;1913899817;8.8965888;45.614203
CASTELLANZA;VARESE;Lombardia;McDonald's;2013;2013-11-24T23:06:06Z;1282636368;8.9002079;45.6066278999999
CASTELLANZA;VARESE;Lombardia;Sharm el Sheik;2014;2014-03-21T16:47:48Z;2731707780;8.9030635;45.6097495
CASTRONNO;VARESE;Lombardia;Pizzeria dell'Angelo;2013;2013-03-29T09:24:15Z;1444686899;8.814314;45.7473535
DAVERIO;VARESE;Lombardia;Pizza Più;2015;2015-11-18T09:59:34Z;3842324413;8.7707253;45.7739163999999
FAGNANO OLONA;VARESE;Lombardia;Pizzeria da asporto;2009;2009-10-20T14:28:23Z;536632899;8.8567105;45.6694415999999
GALLARATE;VARESE;Lombardia;Burger King;2015;2015-03-15T18:46:40Z;3374366943;8.8185283;45.6434842
GALLARATE;VARESE;Lombardia;Crazy Pizza;2016;2016-02-12T18:29:23Z;4003023059;8.7936292;45.6570327
GALLARATE;VARESE;Lombardia;Da Qwinto;2015;2015-09-11T19:56:00Z;3739539466;8.7970354;45.658641
GALLARATE;VARESE;Lombardia;Istanbul;2015;2015-11-14T23:35:37Z;3836562150;8.7917021;45.6624112
GALLARATE;VARESE;Lombardia;Kebap House Gallarate;2013;2013-11-09T12:14:11Z;2525168959;8.7971816;45.6601395
GALLARATE;VARESE;Lombardia;King Kebab;2014;2014-12-19T15:18:38Z;3242771287;8.8103693;45.6661568
GALLARATE;VARESE;Lombardia;New Planet;2014;2014-07-11T09:57:48Z;2958347170;8.79270829999999;45.6620136
GALLARATE;VARESE;Lombardia;NFC Fast Food;2015;2015-09-04T18:13:07Z;3729613527;8.7981108;45.6591117999999
GALLARATE;VARESE;Lombardia;Pizza Regina;2016;2016-02-12T18:30:26Z;4003024599;8.7904863;45.6587487999999
GALLARATE;VARESE;Lombardia;Sapore di Piada;2016;2016-01-22T15:59:31Z;3959814455;8.7908493;45.6598211
GALLARATE;VARESE;Lombardia;Spizzico;2015;2015-03-15T18:46:52Z;3374366949;8.8187037;45.6433779999999
GAVIRATE;VARESE;Lombardia;;2013;2013-10-15T20:43:12Z;1186529058;8.7119798;45.8459804
GAVIRATE;VARESE;Lombardia;Il mago - Pizza de Gavirà;2015;2015-11-19T14:13:15Z;2741048746;8.718688;45.8431076
GAVIRATE;VARESE;Lombardia;Strapizzami;2013;2013-08-01T18:43:00Z;860572159;8.71520029999999;45.8427156999999
GERMIGNAGA;VARESE;Lombardia;Pizzeria Kebab K2;2014;2014-11-26T13:14:37Z;3206093096;8.7300103;45.993467
GORLA MINORE;VARESE;Lombardia;Cinese take away;2009;2009-10-23T14:53:12Z;538969682;8.8984755;45.6448028
GORLA MINORE;VARESE;Lombardia;Pizzeria d'asporto;2009;2009-10-23T14:53:51Z;538969844;8.8985012;45.6447307999999
ISPRA;VARESE;Lombardia;Il Ceppo;2013;2013-03-01T14:10:47Z;672959460;8.6216873;45.8140362999999
ISPRA;VARESE;Lombardia;Pizzeria Il Capriccio;2011;2011-09-14T20:35:13Z;267631922;8.6223256;45.8149818999999
ISPRA;VARESE;Lombardia;Ristorante Caffe' Della Stazione;2012;2012-12-13T08:53:06Z;266674117;8.62073509999999;45.8116729999999
LAVENA PONTE TRESA;VARESE;Lombardia;Imbiss;2014;2014-06-13T20:20:20Z;2915002846;8.8519474;45.9672035999999
LAVENO-MOMBELLO;VARESE;Lombardia;;2013;2013-05-20T09:55:49Z;869449491;8.6192752;45.9089989
LUINO;VARESE;Lombardia;Pizzeria Kebab K2;2013;2013-09-04T19:15:00Z;2446200953;8.74329129999999;46.0034913
MALNATE;VARESE;Lombardia;Istanbul 3;2014;2014-06-02T12:18:17Z;2895199144;8.87977399999999;45.7993912
MORNAGO;VARESE;Lombardia;Talan Kebab;2016;2016-01-13T09:51:01Z;3832638771;8.7539534;45.7474368999999
OGGIONA CON SANTO STEFANO;VARESE;Lombardia;L'Aragosta;2015;2015-11-21T12:34:31Z;3062741184;8.82076419999999;45.6924323
OLGIATE OLONA;VARESE;Lombardia;;2012;2012-09-13T08:27:31Z;1912527965;8.8854249;45.6151277
OLGIATE OLONA;VARESE;Lombardia;;2012;2012-09-13T08:43:04Z;1912537464;8.8851713;45.6325878
OLGIATE OLONA;VARESE;Lombardia;;2012;2012-09-13T08:43:04Z;1912537467;8.8882229;45.6335425999999
OLGIATE OLONA;VARESE;Lombardia;;2012;2012-09-13T08:43:04Z;1912537472;8.8870293;45.6298721
OLGIATE OLONA;VARESE;Lombardia;L'Oasi del gelato;2011;2011-07-26T11:05:01Z;1374574715;8.871821;45.6246426
OLGIATE OLONA;VARESE;Lombardia;Pizzeria da asporto Kambusa;2014;2014-03-21T16:47:49Z;1374574737;8.8715957;45.6246125999999
SALTRIO;VARESE;Lombardia;;2012;2012-07-22T17:12:18Z;1834390339;8.92182219999999;45.8741381
SALTRIO;VARESE;Lombardia;;2012;2012-07-22T17:12:20Z;1834390359;8.9218954;45.8743695
SARONNO;VARESE;Lombardia;McDonald's;2015;2015-03-26T10:46:59Z;2198821516;9.0265079;45.6248229999999
SESTO CALENDE;VARESE;Lombardia;;2015;2015-09-18T15:03:58Z;3749359401;8.651347;45.7239326999999
SOLBIATE ARNO;VARESE;Lombardia;McDonald's;2015;2015-05-29T09:02:47Z;1368828855;8.8099192;45.7191681999999
SOLBIATE OLONA;VARESE;Lombardia;Pizzeria d'asporto Mani D'oro;2009;2009-10-23T14:54:29Z;538969944;8.8885792;45.649675
SOMMA LOMBARDO;VARESE;Lombardia;;2013;2013-11-01T13:41:46Z;2382663469;8.7102132;45.6824493
SOMMA LOMBARDO;VARESE;Lombardia;;2014;2014-01-25T17:25:03Z;2500548748;8.7072258;45.6831894999999
SOMMA LOMBARDO;VARESE;Lombardia;Aksu Kebap;2016;2016-01-28T11:48:55Z;3060809544;8.7125917;45.6821247
SOMMA LOMBARDO;VARESE;Lombardia;Burger King;2013;2013-05-21T10:29:25Z;2314097372;8.72409399999999;45.6475663
SOMMA LOMBARDO;VARESE;Lombardia;La Caveja;2014;2014-01-17T16:47:25Z;2568238512;8.7101326;45.6831661
SOMMA LOMBARDO;VARESE;Lombardia;La Rosticceria;2015;2015-01-16T21:14:29Z;2785619896;8.7113793;45.6823579
SOMMA LOMBARDO;VARESE;Lombardia;Pizzeria Grisù;2014;2014-04-12T14:32:58Z;2785521519;8.71654629999999;45.6833182
SOMMA LOMBARDO;VARESE;Lombardia;Sapori Siciliani;2015;2015-11-07T12:33:21Z;3808225913;8.7046831;45.6757841
TERNATE;VARESE;Lombardia;Pizzeria Da Leo;2016;2016-01-22T09:15:09Z;3832743703;8.7014049;45.7817537
TRADATE;VARESE;Lombardia;Il Faraone;2015;2015-12-05T16:44:42Z;3235324338;8.9039532;45.7144898
TRADATE;VARESE;Lombardia;Istanbul;2015;2015-06-27T13:13:56Z;3621728502;8.9050486;45.7133401999999
TRAVEDONA-MONATE;VARESE;Lombardia;Tommy Pizza;2015;2015-11-10T12:53:09Z;3828522883;8.67346689999999;45.8034032999999
VARESE;VARESE;Lombardia;;2013;2013-03-01T08:14:14Z;1254449764;8.8310178;45.8184583999999
VARESE;VARESE;Lombardia;;2013;2013-05-09T20:40:57Z;2297556149;8.8302294;45.8169423
VARESE;VARESE;Lombardia;;2015;2015-04-18T17:31:02Z;3463719649;8.7974019;45.8290555999999
VARESE;VARESE;Lombardia;;2015;2015-04-18T17:31:02Z;963124774;8.798951;45.8295127
VARESE;VARESE;Lombardia;;2015;2015-11-16T11:19:07Z;1224347544;8.8122073;45.8152855
VARESE;VARESE;Lombardia;Bozan Kebap;2014;2014-04-11T11:23:18Z;1749595631;8.8261552;45.8194269999999
VARESE;VARESE;Lombardia;Da Gianni;2014;2014-05-18T16:44:41Z;2741033796;8.8334697;45.8222214999999
VARESE;VARESE;Lombardia;Dorigos;2014;2014-06-07T09:05:07Z;1343526664;8.81735499999999;45.8359931
VARESE;VARESE;Lombardia;Fudd Ruckers;2014;2014-08-11T16:29:12Z;3010651327;8.8318688;45.8175023
VARESE;VARESE;Lombardia;Golden Egg;2014;2014-09-24T08:34:12Z;1342093096;8.8291921;45.8170912
VARESE;VARESE;Lombardia;Istanbul;2011;2011-04-21T19:35:04Z;1254449721;8.831355;45.8156019999999
VARESE;VARESE;Lombardia;Kosmos Kebab;2015;2015-06-01T17:15:30Z;2895199145;8.8331844;45.8211401
VARESE;VARESE;Lombardia;La Canonichetta;2015;2015-06-01T11:31:28Z;962401326;8.82764399999999;45.8187734999999
VARESE;VARESE;Lombardia;La piada di Strona;2015;2015-06-01T11:31:29Z;1380114241;8.8277663;45.8187678
VARESE;VARESE;Lombardia;La piada di Strona;2015;2015-06-01T11:31:29Z;2404004801;8.8257662;45.8209753
VARESE;VARESE;Lombardia;Mezopotamya;2015;2015-06-01T17:21:18Z;2404004803;8.8233697;45.8190056999999
VARESE;VARESE;Lombardia;Mondo Pizza;2010;2010-08-31T12:18:25Z;890364189;8.79952849999999;45.8102342999999
VARESE;VARESE;Lombardia;Pak take away;2015;2015-02-21T17:47:19Z;3363795840;8.8317853;45.8140228999999
VARESE;VARESE;Lombardia;Pizzeria Le Corti s.a.s.;2013;2013-10-21T14:23:40Z;1591470021;8.8276752;45.8157822
VARESE;VARESE;Lombardia;Ro.Ma.Gnam;2013;2013-11-04T23:56:35Z;1484752266;8.8274229;45.8159662999999
VARESE;VARESE;Lombardia;Rosty Frosty;2013;2013-10-21T14:18:21Z;963116910;8.80892429999999;45.8251078999999
VARESE;VARESE;Lombardia;Tigella Bella;2014;2014-08-11T16:55:24Z;3010710063;8.8270452;45.8205566
VARESE;VARESE;Lombardia;Zei;2011;2011-05-21T16:22:49Z;938117321;8.8257445;45.8164763999999
VERGIATE;VARESE;Lombardia;Vulcano;2015;2015-12-06T09:02:38Z;3879485862;8.6913103;45.7241544999999
MACCAGNO CON PINO E VEDDASCA;VARESE;Lombardia;Pizza 2000 Da Asparto;2015;2015-11-26T05:15:23Z;2486202085;8.73850629999999;46.0431811999999
CADORAGO;COMO;Lombardia;Airest;2015;2015-01-12T23:27:35Z;606308691;9.0275532;45.7298492999999
CADORAGO;COMO;Lombardia;Autogrill;2015;2015-01-12T23:27:35Z;606308696;9.0291423;45.7293202999999
CARLAZZO;COMO;Lombardia;;2016;2016-01-02T15:40:49Z;3866454979;9.1684196;46.0418783
COMO;COMO;Lombardia;;2010;2010-03-25T11:22:11Z;674001426;9.0717543;45.8125811999999
COMO;COMO;Lombardia;;2012;2012-07-17T11:04:50Z;1828434824;9.0864736;45.7998487999999
COMO;COMO;Lombardia;;2012;2012-07-17T11:04:50Z;1828434825;9.0842125;45.8143913999999
COMO;COMO;Lombardia;Granpizza;2015;2015-11-04T23:26:54Z;3818012383;9.0356387;45.8315083
COMO;COMO;Lombardia;McDonald's Tavernola;2014;2014-04-21T17:44:35Z;117605944;9.0629914;45.8373510999999
COMO;COMO;Lombardia;Peach Pit;2015;2015-10-03T19:38:54Z;3770952836;9.081172;45.8096226999999
COMO;COMO;Lombardia;Piadineria;2015;2015-11-04T10:22:31Z;3816838510;9.07884209999999;45.8084621
COMO;COMO;Lombardia;Tigella Bella;2015;2015-09-30T20:24:08Z;3659285537;9.0830701;45.8085341
COMO;COMO;Lombardia;Top Town;2012;2012-02-03T16:36:20Z;598695259;9.08522209999999;45.8056515999999
DOMASO;COMO;Lombardia;La Favola;2015;2015-04-22T18:43:32Z;3471773754;9.33510459999999;46.1536539
DONGO;COMO;Lombardia;Pizzeria Regina2;2014;2014-09-11T09:12:39Z;889096586;9.28487359999999;46.1286945
FINO MORNASCO;COMO;Lombardia;Oasi 2;2013;2013-11-10T17:26:44Z;2526751130;9.05027379999999;45.7516214999999
INVERIGO;COMO;Lombardia;Angolo della pizza;2010;2010-10-07T12:21:04Z;940170808;9.22334309999999;45.7408568
INVERIGO;COMO;Lombardia;crezy driver;2010;2010-10-07T13:07:24Z;940218507;9.2195401;45.7467976
INVERIGO;COMO;Lombardia;Pizza pazza;2010;2010-10-07T12:21:04Z;940170806;9.22369439999999;45.7406452
LURAGO D'ERBA;COMO;Lombardia;La Teglia;2015;2015-12-19T15:35:27Z;3368520085;9.22331209999999;45.7541038
PORLEZZA;COMO;Lombardia;Pronto Pizza;2009;2009-06-14T14:11:33Z;420215355;9.1179668;46.0366158
TORNO;COMO;Lombardia;Pizzeria da asporto Primavera;2010;2010-03-14T20:50:35Z;666302643;9.1164757;45.8575424
GRAVEDONA E UNITI;COMO;Lombardia;;2015;2015-08-31T23:05:56Z;3724006071;9.3026072;46.1477112999999
BELLAGIO;COMO;Lombardia;Bellagio Take-Away;2015;2015-04-09T12:23:14Z;3446556226;9.2624269;45.9866383999999
TREMEZZINA;COMO;Lombardia;Pizzeria Jolly;2015;2015-06-07T07:59:26Z;3578106997;9.2084698;45.9812897999999
SONDRIO;SONDRIO;Lombardia;;2013;2013-12-11T09:54:30Z;2575511571;9.875586;46.1660511999999
SONDRIO;SONDRIO;Lombardia;;2013;2013-12-11T15:16:22Z;2575873063;9.8701158;46.1645697
SONDRIO;SONDRIO;Lombardia;L'alternativa Pizzeria;2013;2013-12-12T16:04:46Z;2575873059;9.8817307;46.1672372999999
SONDRIO;SONDRIO;Lombardia;Mister Pizza;2014;2014-02-27T14:57:55Z;2575567870;9.8805728;46.1697605999999
SONDRIO;SONDRIO;Lombardia;Pecora Nera;2015;2015-12-09T10:36:56Z;3120802428;9.8680606;46.1676469
SONDRIO;SONDRIO;Lombardia;Pizza Pizza;2014;2014-02-27T14:51:02Z;2692672383;9.8736745;46.1699372
SONDRIO;SONDRIO;Lombardia;Pizza Pizza;2014;2014-10-09T16:38:16Z;2693396927;9.8736792;46.1683092999999
SONDRIO;SONDRIO;Lombardia;Pizzeria Egitto;2013;2013-12-13T15:37:45Z;2575567859;9.8814156;46.1697721999999
VALFURVA;SONDRIO;Lombardia;La Fonte;2011;2011-11-03T13:44:25Z;1490372141;10.4972817;46.4113785999999
ABBIATEGRASSO;CITTA' METROPOLITANA DI MILANO;Lombardia;McDonald's;2015;2015-01-13T19:40:11Z;3286548213;8.9165647;45.3832826
ASSAGO;CITTA' METROPOLITANA DI MILANO;Lombardia;McDonald's;2012;2012-09-29T22:02:43Z;1567580835;9.1509274;45.4062995
BELLINZAGO LOMBARDO;CITTA' METROPOLITANA DI MILANO;Lombardia;;2010;2010-09-11T10:38:15Z;906715846;9.4547723;45.5459735
BOLLATE;CITTA' METROPOLITANA DI MILANO;Lombardia;Pizzeria da asporto;2009;2009-10-26T12:56:26Z;540704424;9.1008361;45.5413028999999
BOLLATE;CITTA' METROPOLITANA DI MILANO;Lombardia;Pizzeria da asporto;2009;2009-10-26T12:56:26Z;540704424;9.1008361;45.5413028999999
BUSSERO;CITTA' METROPOLITANA DI MILANO;Lombardia;;2013;2013-03-01T20:49:16Z;1848300357;9.37375759999999;45.5387515999999
BUSSERO;CITTA' METROPOLITANA DI MILANO;Lombardia;Papillon;2014;2014-11-09T16:40:43Z;1848300344;9.3755842;45.5259205999999
BUSSERO;CITTA' METROPOLITANA DI MILANO;Lombardia;Pizzeria Oasi;2014;2014-11-15T22:50:15Z;1848300367;9.37348929999999;45.5366643999999
BUSTO GAROLFO;CITTA' METROPOLITANA DI MILANO;Lombardia;Istanbul;2014;2014-06-20T10:21:02Z;2924534400;8.8833956;45.5462933
CANEGRATE;CITTA' METROPOLITANA DI MILANO;Lombardia;Istanbul Kebap e Pizza;2015;2015-04-18T12:35:56Z;3292317674;8.92590249999999;45.572583
CASSANO D'ADDA;CITTA' METROPOLITANA DI MILANO;Lombardia;McDonald's;2012;2012-07-08T01:42:58Z;1816999944;9.50772289999999;45.5290273999999
CASSANO D'ADDA;CITTA' METROPOLITANA DI MILANO;Lombardia;Star Kebab;2014;2014-07-08T14:11:40Z;1992360757;9.5227768;45.5257330999999
CERRO MAGGIORE;CITTA' METROPOLITANA DI MILANO;Lombardia;;2009;2009-11-18T15:50:08Z;566650767;8.9796987;45.5789667
CERRO MAGGIORE;CITTA' METROPOLITANA DI MILANO;Lombardia;;2009;2009-11-18T15:50:12Z;566650768;8.978291;45.5800781
CERRO MAGGIORE;CITTA' METROPOLITANA DI MILANO;Lombardia;Pizzeria Di Rino;2009;2009-11-18T15:51:39Z;566650860;8.9804368;45.5772064
CERRO MAGGIORE;CITTA' METROPOLITANA DI MILANO;Lombardia;Pizzeria Oasi;2009;2009-11-18T15:51:54Z;566650891;8.9800334;45.5778072
CESATE;CITTA' METROPOLITANA DI MILANO;Lombardia;Pizzeria da asporto;2009;2009-10-31T11:32:00Z;548258627;9.0780638;45.5933143
CESATE;CITTA' METROPOLITANA DI MILANO;Lombardia;Pizzeria Kebab;2009;2009-10-31T17:43:04Z;549114380;9.0716217;45.5936433999999
CESATE;CITTA' METROPOLITANA DI MILANO;Lombardia;Pizzeria - Kebab;2009;2009-10-31T11:32:01Z;548258653;9.0789095;45.5973124
CINISELLO BALSAMO;CITTA' METROPOLITANA DI MILANO;Lombardia;Al Vesuvio;2009;2009-03-31T15:54:19Z;367915958;9.21152859999999;45.5575491999999
CINISELLO BALSAMO;CITTA' METROPOLITANA DI MILANO;Lombardia;Istanbul Bosforo;2013;2013-04-05T19:43:27Z;2251159750;9.21618299999999;45.5540694
CINISELLO BALSAMO;CITTA' METROPOLITANA DI MILANO;Lombardia;Istanbul Kebap Pizza;2013;2013-06-04T14:25:40Z;2117743297;9.2153832;45.5567118
CINISELLO BALSAMO;CITTA' METROPOLITANA DI MILANO;Lombardia;La Sfinge;2014;2014-12-17T21:16:38Z;367716585;9.20304149999999;45.5550265999999
CINISELLO BALSAMO;CITTA' METROPOLITANA DI MILANO;Lombardia;McDonald's;2013;2013-03-11T23:14:34Z;1712688451;9.22112199999999;45.5411836999999
CINISELLO BALSAMO;CITTA' METROPOLITANA DI MILANO;Lombardia;McDonald's;2015;2015-07-09T16:23:23Z;3096405739;9.2290803;45.560957
CINISELLO BALSAMO;CITTA' METROPOLITANA DI MILANO;Lombardia;Med & Lory pizzeria d'asporto;2010;2010-12-12T18:59:36Z;1036264366;9.21379439999999;45.5595969
CINISELLO BALSAMO;CITTA' METROPOLITANA DI MILANO;Lombardia;Pollo Campero;2015;2015-07-09T16:24:23Z;1936582516;9.2288926;45.5608067
COLOGNO MONZESE;CITTA' METROPOLITANA DI MILANO;Lombardia;McDonald's;2011;2011-04-21T07:07:43Z;1253686187;9.2867979;45.5396120999999
COLOGNO MONZESE;CITTA' METROPOLITANA DI MILANO;Lombardia;McDrive;2011;2011-04-21T07:07:42Z;1253686169;9.28619;45.5398233
CORMANO;CITTA' METROPOLITANA DI MILANO;Lombardia;Charlie Brown 2;2011;2011-01-30T01:28:36Z;1127231194;9.1642382;45.5384700999999
CORMANO;CITTA' METROPOLITANA DI MILANO;Lombardia;Da Pipo;2011;2011-01-24T22:09:16Z;1119388445;9.1753546;45.5428653999999
CORMANO;CITTA' METROPOLITANA DI MILANO;Lombardia;Kimo Pizzeria Kebap;2013;2013-11-24T16:37:32Z;2078703563;9.1562879;45.5477495
CORMANO;CITTA' METROPOLITANA DI MILANO;Lombardia;Pizza Tris;2013;2013-03-27T00:27:45Z;1080998823;9.1855965;45.5435623999999
CORMANO;CITTA' METROPOLITANA DI MILANO;Lombardia;Skipper;2013;2013-10-16T13:16:18Z;649848740;9.1612091;45.5499721999999
CORSICO;CITTA' METROPOLITANA DI MILANO;Lombardia;egiziano;2011;2011-11-22T11:21:20Z;1088119583;9.1109734;45.4436746
CORSICO;CITTA' METROPOLITANA DI MILANO;Lombardia;Roadhouse Grill;2013;2013-01-10T08:45:21Z;2103923560;9.0937062;45.4342151999999
CUSAGO;CITTA' METROPOLITANA DI MILANO;Lombardia;;2012;2012-06-07T16:06:05Z;1341157438;9.0337111;45.4480245999999
CUSANO MILANINO;CITTA' METROPOLITANA DI MILANO;Lombardia;Dal Brontolone Pizzeria;2015;2015-03-25T18:03:55Z;317445421;9.1736242;45.5546997
CUSANO MILANINO;CITTA' METROPOLITANA DI MILANO;Lombardia;Istanbul Cusano;2015;2015-04-07T22:08:12Z;355037297;9.1863056;45.5505308999999
CUSANO MILANINO;CITTA' METROPOLITANA DI MILANO;Lombardia;La Sosta tavola calda;2009;2009-01-17T00:54:39Z;332507389;9.1753629;45.5483321999999
CUSANO MILANINO;CITTA' METROPOLITANA DI MILANO;Lombardia;La Villetta Bar Paninoteca;2015;2015-03-25T14:23:33Z;317341599;9.1797334;45.5579559999999
CUSANO MILANINO;CITTA' METROPOLITANA DI MILANO;Lombardia;Miss Pizza;2009;2009-01-15T18:09:36Z;324190556;9.175552;45.5495784
CUSANO MILANINO;CITTA' METROPOLITANA DI MILANO;Lombardia;Mister Pizza;2014;2014-03-20T14:56:54Z;361525514;9.1758854;45.5481879
CUSANO MILANINO;CITTA' METROPOLITANA DI MILANO;Lombardia;Piadineria la Caveja;2013;2013-11-10T19:14:32Z;2504093951;9.187484;45.5517097999999
CUSANO MILANINO;CITTA' METROPOLITANA DI MILANO;Lombardia;Pizza e Kebab;2009;2009-12-22T13:06:53Z;353006235;9.1803193;45.5470642
CUSANO MILANINO;CITTA' METROPOLITANA DI MILANO;Lombardia;Pizza Pazza;2015;2015-04-04T17:35:16Z;324396165;9.1847705;45.5507179
CUSANO MILANINO;CITTA' METROPOLITANA DI MILANO;Lombardia;Pizzeria Primavera;2015;2015-04-11T18:06:15Z;350158405;9.19058839999999;45.5468510999999
CUSANO MILANINO;CITTA' METROPOLITANA DI MILANO;Lombardia;Pizzeria San Pietro;2015;2015-09-06T19:14:03Z;355052656;9.1859476;45.5518373
GARBAGNATE MILANESE;CITTA' METROPOLITANA DI MILANO;Lombardia;McDonald's;2012;2012-10-03T09:30:56Z;1478900648;9.0661418;45.5761510999999
LEGNANO;CITTA' METROPOLITANA DI MILANO;Lombardia;Burger King;2015;2015-06-20T16:15:38Z;714808683;8.9185585;45.5982258
LEGNANO;CITTA' METROPOLITANA DI MILANO;Lombardia;King Istanbul Kebab;2015;2015-09-11T16:05:08Z;3739305791;8.9146777;45.5973388
LEGNANO;CITTA' METROPOLITANA DI MILANO;Lombardia;McDonald's;2015;2015-12-07T11:07:56Z;1918392860;8.9378129;45.596828
MAGENTA;CITTA' METROPOLITANA DI MILANO;Lombardia;Da Giannino dolce, salato e..;2013;2013-11-16T20:07:05Z;2535550878;8.8804766;45.4659099
MAGENTA;CITTA' METROPOLITANA DI MILANO;Lombardia;Istambul kebap;2014;2014-09-01T23:32:58Z;3054614446;8.8843169;45.4667160999999
MAGENTA;CITTA' METROPOLITANA DI MILANO;Lombardia;Istanbul Magenta;2015;2015-09-13T14:13:24Z;2496844699;8.8776005;45.4650144
MAGENTA;CITTA' METROPOLITANA DI MILANO;Lombardia;La teglia;2013;2013-10-14T23:06:01Z;2496844698;8.8778778;45.4651971999999
MAGENTA;CITTA' METROPOLITANA DI MILANO;Lombardia;Mau Davi;2016;2016-02-03T19:02:45Z;3986712449;8.8841933;45.4659132
MAGENTA;CITTA' METROPOLITANA DI MILANO;Lombardia;McDonald's;2015;2015-03-13T18:47:13Z;3234757061;8.86518839999999;45.4666253999999
MAGENTA;CITTA' METROPOLITANA DI MILANO;Lombardia;Pizza kebap in piazza;2015;2015-09-13T14:06:23Z;3741286208;8.8841533;45.4645505
MAGENTA;CITTA' METROPOLITANA DI MILANO;Lombardia;Pizza party;2015;2015-09-21T22:51:57Z;3753598127;8.8850736;45.4650803999999
MAGENTA;CITTA' METROPOLITANA DI MILANO;Lombardia;Pizzeria Santa Lucia;2014;2014-08-17T15:08:29Z;3022531084;8.8864153;45.468305
MAGENTA;CITTA' METROPOLITANA DI MILANO;Lombardia;Star pizza;2015;2015-05-09T18:31:20Z;3460391613;8.8862763;45.4658026999999
MELEGNANO;CITTA' METROPOLITANA DI MILANO;Lombardia;Il Focacciaro;2014;2014-12-22T11:56:05Z;3247584408;9.3238851;45.3583295999999
MELEGNANO;CITTA' METROPOLITANA DI MILANO;Lombardia;Panino Giallo;2013;2013-03-26T23:09:15Z;2226745746;9.3275217;45.3579274
MELZO;CITTA' METROPOLITANA DI MILANO;Lombardia;Il Focolare;2015;2015-07-04T20:50:40Z;304295807;9.4287986;45.5014097999999
MELZO;CITTA' METROPOLITANA DI MILANO;Lombardia;Il nano pazzo;2015;2015-07-04T20:50:40Z;304295679;9.4266322;45.5046559999999
MILANO;CITTA' METROPOLITANA DI MILANO;Lombardia;;2009;2009-07-31T13:26:30Z;452495780;9.1553395;45.4391273999999
MILANO;CITTA' METROPOLITANA DI MILANO;Lombardia;;2010;2010-11-22T01:32:15Z;998947330;9.09375539999999;45.4619137999999
MILANO;CITTA' METROPOLITANA DI MILANO;Lombardia;;2011;2011-05-08T17:05:13Z;1277337390;9.14203599999999;45.4446401
MILANO;CITTA' METROPOLITANA DI MILANO;Lombardia;;2011;2011-09-04T16:16:42Z;1274759816;9.1414057;45.4886753999999
MILANO;CITTA' METROPOLITANA DI MILANO;Lombardia;;2011;2011-12-08T23:46:35Z;995633488;9.1088088;45.4605944999999
MILANO;CITTA' METROPOLITANA DI MILANO;Lombardia;;2013;2013-04-05T16:09:38Z;2250935309;9.1433104;45.515157
MILANO;CITTA' METROPOLITANA DI MILANO;Lombardia;;2013;2013-04-16T17:11:44Z;2269749811;9.1613808;45.5027379
MILANO;CITTA' METROPOLITANA DI MILANO;Lombardia;;2013;2013-10-01T20:08:18Z;2479415679;9.18686909999999;45.4874944999999
MILANO;CITTA' METROPOLITANA DI MILANO;Lombardia;;2014;2014-01-17T12:43:30Z;2625811241;9.2344832;45.4997288
MILANO;CITTA' METROPOLITANA DI MILANO;Lombardia;;2014;2014-04-07T19:06:03Z;2775875539;9.22404659999999;45.4760202
MILANO;CITTA' METROPOLITANA DI MILANO;Lombardia;;2014;2014-08-18T20:33:07Z;3025595221;9.1848008;45.4611981999999
MILANO;CITTA' METROPOLITANA DI MILANO;Lombardia;;2014;2014-12-14T17:17:07Z;998947359;9.098738;45.4600872999999
MILANO;CITTA' METROPOLITANA DI MILANO;Lombardia;;2015;2015-04-16T12:08:32Z;3459236660;9.1076;45.5162131
MILANO;CITTA' METROPOLITANA DI MILANO;Lombardia;;2015;2015-04-16T12:08:32Z;3459236662;9.1084036;45.5162321
MILANO;CITTA' METROPOLITANA DI MILANO;Lombardia;;2015;2015-04-16T12:08:32Z;3459236666;9.1088976;45.5162777999999
MILANO;CITTA' METROPOLITANA DI MILANO;Lombardia;;2015;2015-04-16T12:08:32Z;3459236681;9.10352239999999;45.5172136999999
MILANO;CITTA' METROPOLITANA DI MILANO;Lombardia;;2015;2015-04-16T12:08:33Z;3459240694;9.1086533;45.5178299999999
MILANO;CITTA' METROPOLITANA DI MILANO;Lombardia;;2015;2015-04-16T12:08:33Z;3459240702;9.1028546;45.5183094
MILANO;CITTA' METROPOLITANA DI MILANO;Lombardia;;2015;2015-04-16T12:08:33Z;3459240703;9.100585;45.5184045
MILANO;CITTA' METROPOLITANA DI MILANO;Lombardia;;2015;2015-04-16T12:08:33Z;3459240704;9.10224099999999;45.5184120999999
MILANO;CITTA' METROPOLITANA DI MILANO;Lombardia;;2015;2015-04-16T12:08:33Z;3459240705;9.10663349999999;45.5184463
MILANO;CITTA' METROPOLITANA DI MILANO;Lombardia;;2015;2015-04-16T12:08:33Z;3459240709;9.1031586;45.5187468999999
MILANO;CITTA' METROPOLITANA DI MILANO;Lombardia;;2015;2015-04-16T12:08:33Z;3459240711;9.1068887;45.518861
MILANO;CITTA' METROPOLITANA DI MILANO;Lombardia;;2015;2015-04-16T12:08:33Z;3459240715;9.10116599999999;45.5192375999999
MILANO;CITTA' METROPOLITANA DI MILANO;Lombardia;;2015;2015-04-16T12:08:34Z;3459240727;9.0941728;45.5200898
MILANO;CITTA' METROPOLITANA DI MILANO;Lombardia;;2015;2015-04-16T12:08:34Z;3459240729;9.0936787;45.5202457999999
MILANO;CITTA' METROPOLITANA DI MILANO;Lombardia;;2015;2015-04-16T12:08:34Z;3459240733;9.0931683;45.5204245999999
MILANO;CITTA' METROPOLITANA DI MILANO;Lombardia;;2015;2015-04-16T12:08:34Z;3459240737;9.10056329999999;45.5205235
MILANO;CITTA' METROPOLITANA DI MILANO;Lombardia;;2015;2015-04-16T12:08:34Z;3459240747;9.0962631;45.5210675
MILANO;CITTA' METROPOLITANA DI MILANO;Lombardia;;2015;2015-04-16T12:08:35Z;3459240767;9.0964966;45.5221098
MILANO;CITTA' METROPOLITANA DI MILANO;Lombardia;;2015;2015-04-16T12:08:35Z;3459240773;9.0963717;45.5227830999999
MILANO;CITTA' METROPOLITANA DI MILANO;Lombardia;;2015;2015-04-25T14:36:11Z;3476506693;9.2134149;45.4751053999999
MILANO;CITTA' METROPOLITANA DI MILANO;Lombardia;;2015;2015-06-17T15:08:43Z;3459240732;9.10256049999999;45.5203044
MILANO;CITTA' METROPOLITANA DI MILANO;Lombardia;;2015;2015-06-17T15:08:43Z;3459240745;9.1016796;45.5210068
MILANO;CITTA' METROPOLITANA DI MILANO;Lombardia;;2015;2015-06-27T15:04:11Z;3621886735;9.15787;45.4553361999999
MILANO;CITTA' METROPOLITANA DI MILANO;Lombardia;;2015;2015-09-01T09:17:07Z;1537545752;9.1119702;45.4607294999999
MILANO;CITTA' METROPOLITANA DI MILANO;Lombardia;;2015;2015-11-21T09:46:54Z;3848621723;9.2047236;45.4840501999999
MILANO;CITTA' METROPOLITANA DI MILANO;Lombardia;;2015;2015-12-19T09:45:21Z;3899392291;9.2318963;45.4862076
MILANO;CITTA' METROPOLITANA DI MILANO;Lombardia;;2016;2016-01-29T15:09:28Z;3976146292;9.1838651;45.4907984
MILANO;CITTA' METROPOLITANA DI MILANO;Lombardia;;2016;2016-02-01T12:31:56Z;3981820257;9.2315058;45.480746
MILANO;CITTA' METROPOLITANA DI MILANO;Lombardia;1.5;2013;2013-11-15T17:39:03Z;2533838256;9.2177897;45.4835992
MILANO;CITTA' METROPOLITANA DI MILANO;Lombardia;4 Stelle;2015;2015-03-06T18:08:16Z;3386290583;9.1836838;45.4894388
MILANO;CITTA' METROPOLITANA DI MILANO;Lombardia;Aksaray Istanbul;2013;2013-02-08T18:50:42Z;2146894831;9.21748069999999;45.4430643
MILANO;CITTA' METROPOLITANA DI MILANO;Lombardia;Amor di patata;2015;2015-03-17T19:49:24Z;3393075025;9.17012579999999;45.4538032999999
MILANO;CITTA' METROPOLITANA DI MILANO;Lombardia;Amsterdam Chips;2015;2015-04-27T12:46:56Z;3458327584;9.1704112;45.4530999999999
MILANO;CITTA' METROPOLITANA DI MILANO;Lombardia;Amsterdam Chips;2015;2015-04-27T12:46:56Z;3458327587;9.1830471;45.460613
MILANO;CITTA' METROPOLITANA DI MILANO;Lombardia;Artico;2014;2014-03-15T19:53:31Z;2719698233;9.1865705;45.4892583
MILANO;CITTA' METROPOLITANA DI MILANO;Lombardia;Assaggia e Viaggia;2015;2015-02-28T15:33:18Z;3372570147;9.2364627;45.4815206
MILANO;CITTA' METROPOLITANA DI MILANO;Lombardia;Bella Italia;2013;2013-05-19T00:43:21Z;2310496141;9.2363826;45.4840014999999
MILANO;CITTA' METROPOLITANA DI MILANO;Lombardia;Bocconi Giusti;2010;2010-01-11T10:37:02Z;611589555;9.1910465;45.4508146
MILANO;CITTA' METROPOLITANA DI MILANO;Lombardia;Bontà;2010;2010-09-27T14:47:39Z;444759180;9.2258307;45.5170523
MILANO;CITTA' METROPOLITANA DI MILANO;Lombardia;Burger King;2015;2015-01-10T16:07:37Z;251293076;9.19060389999999;45.4647885999999
MILANO;CITTA' METROPOLITANA DI MILANO;Lombardia;Burger King;2015;2015-06-02T14:11:40Z;389949446;9.2106857;45.4803926
MILANO;CITTA' METROPOLITANA DI MILANO;Lombardia;Burger King;2015;2015-06-22T17:27:14Z;3611145123;9.225346;45.4913061999999
MILANO;CITTA' METROPOLITANA DI MILANO;Lombardia;Burger Wave;2015;2015-09-17T06:39:44Z;3188691736;9.1770957;45.446952
MILANO;CITTA' METROPOLITANA DI MILANO;Lombardia;Burger Wave;2015;2015-09-17T06:42:00Z;3405659145;9.1809602;45.4568528
MILANO;CITTA' METROPOLITANA DI MILANO;Lombardia;California Bakery;2014;2014-05-05T20:07:38Z;2838418114;9.1840125;45.4738298999999
MILANO;CITTA' METROPOLITANA DI MILANO;Lombardia;California Bakery;2014;2014-09-04T17:53:05Z;2838418115;9.1840517;45.4767459999999
MILANO;CITTA' METROPOLITANA DI MILANO;Lombardia;chicken&chicken;2013;2013-10-12T23:49:52Z;2494514128;9.2142097;45.4842057999999
MILANO;CITTA' METROPOLITANA DI MILANO;Lombardia;Chicken&Chicken;2013;2013-11-16T19:22:18Z;2535463882;9.1855935;45.494658
MILANO;CITTA' METROPOLITANA DI MILANO;Lombardia;Chipstar Amsterdam;2015;2015-03-10T21:04:41Z;3393075024;9.1815656;45.4591386
MILANO;CITTA' METROPOLITANA DI MILANO;Lombardia;CinePizza;2009;2009-06-25T12:27:23Z;429215841;9.15461709999999;45.4524722
MILANO;CITTA' METROPOLITANA DI MILANO;Lombardia;Da Shady;2014;2014-04-13T20:05:25Z;2789170721;9.1825366;45.4675648999999
MILANO;CITTA' METROPOLITANA DI MILANO;Lombardia;Divina Piadina;2016;2016-02-11T08:43:49Z;4000177433;9.2167713;45.4767531
MILANO;CITTA' METROPOLITANA DI MILANO;Lombardia;Faith Istanbul;2013;2013-12-11T10:58:05Z;2575610413;9.2153421;45.4850244
MILANO;CITTA' METROPOLITANA DI MILANO;Lombardia;Flower Burger;2016;2016-01-22T09:04:43Z;3957004123;9.20267589999999;45.4760295
MILANO;CITTA' METROPOLITANA DI MILANO;Lombardia;Focacceria;2013;2013-05-03T09:10:42Z;2290143703;9.2300923;45.4915774999999
MILANO;CITTA' METROPOLITANA DI MILANO;Lombardia;Fuoripizza;2009;2009-06-16T18:12:41Z;421843458;9.1490846;45.438738
MILANO;CITTA' METROPOLITANA DI MILANO;Lombardia;Giannasi;2014;2014-02-26T11:36:31Z;2409197185;9.2060306;45.4496514
MILANO;CITTA' METROPOLITANA DI MILANO;Lombardia;Gnam Gnam;2015;2015-05-15T07:55:04Z;3518838871;9.1540073;45.5024111999999
MILANO;CITTA' METROPOLITANA DI MILANO;Lombardia;Hot doggy;2014;2014-09-28T11:10:10Z;793812586;9.2154232;45.4534732999999
MILANO;CITTA' METROPOLITANA DI MILANO;Lombardia;Il Morbidone;2013;2013-08-19T14:58:21Z;2335521884;9.1622971;45.5036265
MILANO;CITTA' METROPOLITANA DI MILANO;Lombardia;Il muretto;2015;2015-12-11T09:59:46Z;3887367586;9.2288504;45.4727419
MILANO;CITTA' METROPOLITANA DI MILANO;Lombardia;Il Panino Giusto;2013;2013-10-02T09:15:20Z;281589718;9.15991479999999;45.4673209999999
MILANO;CITTA' METROPOLITANA DI MILANO;Lombardia;Il Santa;2014;2014-10-24T11:46:06Z;3147224069;9.1963227;45.485854
MILANO;CITTA' METROPOLITANA DI MILANO;Lombardia;Isola della Pizza;2015;2015-02-28T15:29:02Z;3147153613;9.1901127;45.4884540999999
MILANO;CITTA' METROPOLITANA DI MILANO;Lombardia;Istanbul Ayasofya;2013;2013-11-21T08:42:09Z;2542753991;9.2143763;45.483597
MILANO;CITTA' METROPOLITANA DI MILANO;Lombardia;Istanbul Kebap;2015;2015-04-02T07:26:57Z;3431221875;9.2120152;45.5157943
MILANO;CITTA' METROPOLITANA DI MILANO;Lombardia;Italì;2014;2014-09-24T10:58:44Z;2934566423;9.1364944;45.4643321
MILANO;CITTA' METROPOLITANA DI MILANO;Lombardia;Kebap;2010;2010-05-02T00:21:42Z;715987146;9.1804314;45.4433962
MILANO;CITTA' METROPOLITANA DI MILANO;Lombardia;Kimos Pizza;2015;2015-12-04T08:33:42Z;1476116760;9.2405697;45.4360919
MILANO;CITTA' METROPOLITANA DI MILANO;Lombardia;La Bottega dei Sapori MoMo;2016;2016-01-24T17:30:33Z;3950324036;9.22980259999999;45.4689730999999
MILANO;CITTA' METROPOLITANA DI MILANO;Lombardia;La boutique della pizza;2015;2015-05-14T10:37:31Z;3517045051;9.1544073;45.4366325
MILANO;CITTA' METROPOLITANA DI MILANO;Lombardia;La casa del kebab;2009;2009-07-31T13:26:30Z;452495766;9.1553529;45.4391557
MILANO;CITTA' METROPOLITANA DI MILANO;Lombardia;Le Petit Prince;2015;2015-07-17T14:16:01Z;3655625134;9.1834987;45.4819219999999
MILANO;CITTA' METROPOLITANA DI MILANO;Lombardia;Mama Burger;2013;2013-03-25T21:32:17Z;2223312750;9.1918257;45.4660992
MILANO;CITTA' METROPOLITANA DI MILANO;Lombardia;Mama Burger;2015;2015-11-21T09:51:01Z;3217983452;9.2008388;45.481926
MILANO;CITTA' METROPOLITANA DI MILANO;Lombardia;Margy;2014;2014-09-13T21:09:39Z;2140423460;9.1942587;45.4623218999999
MILANO;CITTA' METROPOLITANA DI MILANO;Lombardia;Mcdonald's;2015;2015-04-09T12:16:26Z;2606118832;9.2046881;45.4753352
MILANO;CITTA' METROPOLITANA DI MILANO;Lombardia;McDonalds;2015;2015-11-26T20:09:17Z;1789640322;9.1423009;45.4789912
MILANO;CITTA' METROPOLITANA DI MILANO;Lombardia;McDonald's;2011;2011-03-02T15:42:22Z;283652378;9.2501624;45.4236538999999
MILANO;CITTA' METROPOLITANA DI MILANO;Lombardia;McDonald's;2012;2012-03-15T10:00:21Z;1675597908;9.2102351;45.4623716999999
MILANO;CITTA' METROPOLITANA DI MILANO;Lombardia;McDonald's;2012;2012-10-14T21:38:40Z;1956496885;9.1629823;45.5303638
MILANO;CITTA' METROPOLITANA DI MILANO;Lombardia;McDonald's;2012;2012-10-15T08:49:38Z;1956726040;9.16435019999999;45.5297708
MILANO;CITTA' METROPOLITANA DI MILANO;Lombardia;McDonald's;2012;2012-10-31T11:24:17Z;661490182;9.2145237;45.4837408
MILANO;CITTA' METROPOLITANA DI MILANO;Lombardia;McDonald's;2013;2013-05-20T07:28:08Z;412210834;9.2027994;45.4514996999999
MILANO;CITTA' METROPOLITANA DI MILANO;Lombardia;McDonald's;2013;2013-11-16T19:59:55Z;281727031;9.18498119999999;45.4949555999999
MILANO;CITTA' METROPOLITANA DI MILANO;Lombardia;McDonald's;2013;2013-11-21T16:13:49Z;661491885;9.21593659999999;45.4856246
MILANO;CITTA' METROPOLITANA DI MILANO;Lombardia;McDonald's;2014;2014-04-05T18:05:29Z;272878054;9.15552699999999;45.4674151999999
MILANO;CITTA' METROPOLITANA DI MILANO;Lombardia;McDonald's;2014;2014-06-30T18:35:32Z;418368446;9.1884032;45.4643605999999
MILANO;CITTA' METROPOLITANA DI MILANO;Lombardia;McDonald's;2014;2014-07-02T14:27:37Z;2943628440;9.120635;45.4712283
MILANO;CITTA' METROPOLITANA DI MILANO;Lombardia;McDonald's;2014;2014-09-01T19:39:14Z;2420947006;9.2049948;45.4855925
MILANO;CITTA' METROPOLITANA DI MILANO;Lombardia;McDonald's;2014;2014-09-01T23:28:51Z;534911886;9.1804395;45.4531337
MILANO;CITTA' METROPOLITANA DI MILANO;Lombardia;McDonald's;2015;2015-04-08T16:15:13Z;693864292;9.1390439;45.4959917999999
MILANO;CITTA' METROPOLITANA DI MILANO;Lombardia;McDonald's;2015;2015-07-01T13:10:02Z;3118976183;9.1914089;45.4655824999999
MILANO;CITTA' METROPOLITANA DI MILANO;Lombardia;McDonald's;2015;2015-11-21T09:51:02Z;351314706;9.2047883;45.4841140999999
MILANO;CITTA' METROPOLITANA DI MILANO;Lombardia;McDonald's;2015;2015-11-26T20:45:41Z;3004739625;9.2159596;45.4442639
MILANO;CITTA' METROPOLITANA DI MILANO;Lombardia;Mediterraneo;2013;2013-03-22T19:06:02Z;2215015116;9.2197508;45.4954789
MILANO;CITTA' METROPOLITANA DI MILANO;Lombardia;Mekan;2015;2015-07-17T14:16:02Z;3655625135;9.1821689;45.4822823
MILANO;CITTA' METROPOLITANA DI MILANO;Lombardia;Melcaffe Acquarius tavola fredda;2012;2012-09-06T07:27:10Z;1901845024;9.1983187;45.4867171
MILANO;CITTA' METROPOLITANA DI MILANO;Lombardia;Metro Chicken;2013;2013-03-22T19:06:13Z;2215015139;9.2196201;45.4951410999999
MILANO;CITTA' METROPOLITANA DI MILANO;Lombardia;Mevlana Kebap;2013;2013-06-10T12:51:04Z;2034349330;9.2355136;45.4853968999999
MILANO;CITTA' METROPOLITANA DI MILANO;Lombardia;Moncibè;2009;2009-09-23T09:49:09Z;506113240;9.1795978;45.4468688999999
MILANO;CITTA' METROPOLITANA DI MILANO;Lombardia;Mr. Poli;2015;2015-02-28T23:03:43Z;2901072301;9.2231432;45.4757105999999
MILANO;CITTA' METROPOLITANA DI MILANO;Lombardia;Mr Zuppa;2014;2014-12-06T01:47:26Z;3217983455;9.2009414;45.4841169999999
MILANO;CITTA' METROPOLITANA DI MILANO;Lombardia;My Good Food;2016;2016-02-06T12:46:34Z;3991938426;9.16620709999999;45.5036739999999
MILANO;CITTA' METROPOLITANA DI MILANO;Lombardia;Old Wild West;2013;2013-04-25T00:36:03Z;2280248136;9.1814323;45.4577565
MILANO;CITTA' METROPOLITANA DI MILANO;Lombardia;Old Wild West;2014;2014-12-03T13:43:20Z;1925749639;9.2160449;45.5217316
MILANO;CITTA' METROPOLITANA DI MILANO;Lombardia;Ozken Bektas;2014;2014-06-27T11:59:03Z;2935373801;9.1872235;45.489007
MILANO;CITTA' METROPOLITANA DI MILANO;Lombardia;Panini Durini;2014;2014-12-08T18:28:38Z;2409671781;9.17647919999999;45.4658777
MILANO;CITTA' METROPOLITANA DI MILANO;Lombardia;Panino Giusto;2009;2009-02-07T13:01:25Z;282179000;9.1796146;45.453149
MILANO;CITTA' METROPOLITANA DI MILANO;Lombardia;Panino Giusto;2013;2013-03-26T23:03:45Z;2226725543;9.1776369;45.4531114999999
MILANO;CITTA' METROPOLITANA DI MILANO;Lombardia;Panino Giusto;2015;2015-10-23T18:34:16Z;2416148133;9.1861712;45.4797936
MILANO;CITTA' METROPOLITANA DI MILANO;Lombardia;Panino Milano;2014;2014-10-24T11:46:08Z;3147224074;9.19602199999999;45.4877399
MILANO;CITTA' METROPOLITANA DI MILANO;Lombardia;Pan-Yingwen;2014;2014-07-09T06:36:50Z;2955413780;9.1631578;45.5038865
MILANO;CITTA' METROPOLITANA DI MILANO;Lombardia;Pasa Doner Kebap;2012;2012-01-09T21:59:47Z;506111534;9.1791797;45.4438092999999
MILANO;CITTA' METROPOLITANA DI MILANO;Lombardia;Pizza Gallery;2015;2015-02-07T16:02:47Z;3336414033;9.1530285;45.4673389
MILANO;CITTA' METROPOLITANA DI MILANO;Lombardia;Pizza Mundial;2015;2015-05-04T11:57:57Z;3472914652;9.2358096;45.4842949
MILANO;CITTA' METROPOLITANA DI MILANO;Lombardia;Pizza OK;2015;2015-01-27T17:10:31Z;3314831964;9.1719429;45.47643
MILANO;CITTA' METROPOLITANA DI MILANO;Lombardia;Pizza Party;2015;2015-09-18T08:51:44Z;3748942869;9.24382179999999;45.4615018
MILANO;CITTA' METROPOLITANA DI MILANO;Lombardia;Pizzeria;2011;2011-12-08T23:41:15Z;981884268;9.12190479999999;45.4577329
MILANO;CITTA' METROPOLITANA DI MILANO;Lombardia;Pizzeria Ennio;2015;2015-08-19T18:21:25Z;3705306292;9.21928559999999;45.4522845999999
MILANO;CITTA' METROPOLITANA DI MILANO;Lombardia;Pizzeria il Veliero;2014;2014-01-27T09:09:18Z;2639434794;9.2233429;45.4778798999999
MILANO;CITTA' METROPOLITANA DI MILANO;Lombardia;Pizzeria Kebab kohky;2011;2011-03-06T20:43:11Z;1189928760;9.1656387;45.483525
MILANO;CITTA' METROPOLITANA DI MILANO;Lombardia;Pizzeria La Maria;2014;2014-08-29T16:44:17Z;3049190286;9.182366;45.4838955999999
MILANO;CITTA' METROPOLITANA DI MILANO;Lombardia;Pizzeria Superstar;2014;2014-10-09T23:02:45Z;3121442484;9.2294476;45.4689698
MILANO;CITTA' METROPOLITANA DI MILANO;Lombardia;Pizzeria Villa;2013;2013-01-07T10:40:47Z;444759181;9.225812;45.5169921999999
MILANO;CITTA' METROPOLITANA DI MILANO;Lombardia;Polifood;2015;2015-11-12T21:51:37Z;3833447254;9.1534954;45.5015719
MILANO;CITTA' METROPOLITANA DI MILANO;Lombardia;Pret a Panin;2015;2015-06-19T18:30:24Z;3605721837;9.1865026;45.4833833
MILANO;CITTA' METROPOLITANA DI MILANO;Lombardia;Regina Piadina;2015;2015-02-26T15:04:14Z;3304326069;9.2208449;45.489153
MILANO;CITTA' METROPOLITANA DI MILANO;Lombardia;Ristorante De Marchi;2013;2013-08-06T22:01:11Z;2409311927;9.208239;45.4982560999999
MILANO;CITTA' METROPOLITANA DI MILANO;Lombardia;Ristò Self Service;2014;2014-03-04T09:33:08Z;2701054145;9.1652862;45.5075751999999
MILANO;CITTA' METROPOLITANA DI MILANO;Lombardia;San Giorgio;2012;2012-09-03T13:04:08Z;1895967933;9.2239242;45.4898857
MILANO;CITTA' METROPOLITANA DI MILANO;Lombardia;Selfish;2015;2015-11-21T09:47:24Z;3848624780;9.20102329999999;45.4821146
MILANO;CITTA' METROPOLITANA DI MILANO;Lombardia;Spizzico;2011;2011-05-05T21:10:00Z;251293078;9.1904784;45.4647833
MILANO;CITTA' METROPOLITANA DI MILANO;Lombardia;Spizzico;2013;2013-02-24T21:42:59Z;1710636316;9.17564619999999;45.4686955999999
MILANO;CITTA' METROPOLITANA DI MILANO;Lombardia;Spizzico;2014;2014-08-12T20:36:22Z;3013128787;9.2107423;45.4803868999999
MILANO;CITTA' METROPOLITANA DI MILANO;Lombardia;Spizzico - Milano Dante 393;2015;2015-03-23T10:11:43Z;2973140268;9.1847045;45.4662136
MILANO;CITTA' METROPOLITANA DI MILANO;Lombardia;Spontini;2014;2014-08-28T05:43:42Z;2399646184;9.1911892;45.4656665999999
MILANO;CITTA' METROPOLITANA DI MILANO;Lombardia;Spontini;2015;2015-11-21T09:47:24Z;3848621997;9.2037437;45.4838378999999
MILANO;CITTA' METROPOLITANA DI MILANO;Lombardia;Star Zagros;2015;2015-08-29T08:00:00Z;3719678036;9.2223691;45.5041259999999
MILANO;CITTA' METROPOLITANA DI MILANO;Lombardia;Sultan Kebab;2015;2015-11-04T19:38:16Z;3817768800;9.2075751;45.4817889999999
MILANO;CITTA' METROPOLITANA DI MILANO;Lombardia;Suomy;2014;2014-10-24T11:46:08Z;3147227482;9.1958281;45.4875553999999
MILANO;CITTA' METROPOLITANA DI MILANO;Lombardia;Taj Mahal;2015;2015-11-04T19:38:16Z;3817768801;9.2097268;45.4837293
MILANO;CITTA' METROPOLITANA DI MILANO;Lombardia;Tappa kebab di Rauf;2015;2015-03-11T15:39:09Z;3393930895;9.2225684;45.4904861999999
MILANO;CITTA' METROPOLITANA DI MILANO;Lombardia;Tramé;2014;2014-10-10T14:42:40Z;3122333546;9.1838257;45.4737753
MILANO;CITTA' METROPOLITANA DI MILANO;Lombardia;Tre Colore;2012;2012-09-06T07:27:18Z;1896236918;9.22147389999999;45.4876859999999
MILANO;CITTA' METROPOLITANA DI MILANO;Lombardia;Turkish Kebab;2015;2015-02-26T16:14:13Z;3373394937;9.2476935;45.4457456
MILANO;CITTA' METROPOLITANA DI MILANO;Lombardia;Turkish kebap;2011;2011-03-06T20:43:12Z;1189928787;9.1653033;45.4831962
MILANO;CITTA' METROPOLITANA DI MILANO;Lombardia;Universo Vegano;2015;2015-01-24T09:05:23Z;3307148762;9.1886739;45.4796760999999
MILANO;CITTA' METROPOLITANA DI MILANO;Lombardia;YouPizza;2012;2012-09-06T07:27:11Z;1901845036;9.1901813;45.4618151
OPERA;CITTA' METROPOLITANA DI MILANO;Lombardia;;2012;2012-02-16T19:46:18Z;1635617133;9.2118667;45.3946805
OPERA;CITTA' METROPOLITANA DI MILANO;Lombardia;D e G Pizzeria;2010;2010-03-23T19:39:32Z;672889727;9.21192669999999;45.3780075999999
OSSONA;CITTA' METROPOLITANA DI MILANO;Lombardia;Italian Pizza;2010;2010-10-15T21:17:36Z;950787925;8.9013519;45.5066069
OSSONA;CITTA' METROPOLITANA DI MILANO;Lombardia;Pizzeria Peter Pan;2010;2010-11-03T20:54:21Z;976077622;8.90099599999999;45.5056099999999
PADERNO DUGNANO;CITTA' METROPOLITANA DI MILANO;Lombardia;EgizItaly;2012;2012-05-31T19:47:00Z;1771754759;9.1658386;45.5692872999999
PADERNO DUGNANO;CITTA' METROPOLITANA DI MILANO;Lombardia;La Pizza Giusta;2012;2012-05-31T19:47:01Z;1771754773;9.16432039999999;45.5708381999999
PADERNO DUGNANO;CITTA' METROPOLITANA DI MILANO;Lombardia;McDonald's;2013;2013-10-12T18:32:08Z;2105427505;9.18004479999999;45.5735912999999
PADERNO DUGNANO;CITTA' METROPOLITANA DI MILANO;Lombardia;Pizza House;2012;2012-05-31T19:47:01Z;1771754781;9.1606941;45.5676874999999
PADERNO DUGNANO;CITTA' METROPOLITANA DI MILANO;Lombardia;Pizza Inn;2012;2012-09-18T10:23:39Z;849599905;9.14778669999999;45.5710874
PADERNO DUGNANO;CITTA' METROPOLITANA DI MILANO;Lombardia;Pizzeria Fantaghirò;2012;2012-05-25T20:28:25Z;1765536453;9.1707222;45.5582721999999
PADERNO DUGNANO;CITTA' METROPOLITANA DI MILANO;Lombardia;Snack Bar;2013;2013-11-09T14:54:27Z;2525339131;9.1637769;45.5556337
PIOLTELLO;CITTA' METROPOLITANA DI MILANO;Lombardia;McDonald's Pioltello;2015;2015-12-16T21:09:03Z;3882422248;9.3394604;45.5031729
PIOLTELLO;CITTA' METROPOLITANA DI MILANO;Lombardia;Punto Pizza;2014;2014-01-28T09:26:29Z;2640730022;9.327277;45.481726
PIOLTELLO;CITTA' METROPOLITANA DI MILANO;Lombardia;Roadhouse Pioltello;2015;2015-12-16T21:09:03Z;3895729328;9.3398093;45.5028555
RESCALDINA;CITTA' METROPOLITANA DI MILANO;Lombardia;McDonald's;2015;2015-02-27T12:44:58Z;1361297052;8.9631513;45.6096823
RHO;CITTA' METROPOLITANA DI MILANO;Lombardia;;2015;2015-04-16T12:08:34Z;3459240756;9.0940859;45.5214896999999
ROZZANO;CITTA' METROPOLITANA DI MILANO;Lombardia;Burger King;2014;2014-04-19T23:25:35Z;2802449965;9.1767531;45.3898891999999
ROZZANO;CITTA' METROPOLITANA DI MILANO;Lombardia;McDonald's;2014;2014-10-19T10:01:26Z;1396580530;9.17559;45.3907152999999
ROZZANO;CITTA' METROPOLITANA DI MILANO;Lombardia;RoadHouse Grill;2010;2010-08-30T13:14:59Z;260103018;9.15009;45.3930987
SAN DONATO MILANESE;CITTA' METROPOLITANA DI MILANO;Lombardia;Il Padellino;2016;2016-01-09T20:45:26Z;3936466381;9.2596664;45.4197384
SEGRATE;CITTA' METROPOLITANA DI MILANO;Lombardia;;2012;2012-01-02T22:36:58Z;1574767431;9.2913484;45.4953495
SEGRATE;CITTA' METROPOLITANA DI MILANO;Lombardia;Mac donalds;2014;2014-03-31T07:43:28Z;2752822098;9.28498319999999;45.4740656999999
SEGRATE;CITTA' METROPOLITANA DI MILANO;Lombardia;McDonald's;2014;2014-08-28T06:04:03Z;3046769436;9.2793816;45.4613975999999
SEGRATE;CITTA' METROPOLITANA DI MILANO;Lombardia;McDonald's;2015;2015-08-23T18:08:09Z;3368070204;9.2638554;45.4862191
SEGRATE;CITTA' METROPOLITANA DI MILANO;Lombardia;Old Wild West;2014;2014-03-31T07:47:42Z;2752822097;9.28719109999999;45.4751900999999
SEGRATE;CITTA' METROPOLITANA DI MILANO;Lombardia;Pizza Kebap;2015;2015-06-06T21:37:51Z;656073681;9.2945087;45.4917390999999
SEGRATE;CITTA' METROPOLITANA DI MILANO;Lombardia;Roadhouse grill;2014;2014-03-31T07:43:28Z;2755623184;9.285686;45.4743008
SESTO SAN GIOVANNI;CITTA' METROPOLITANA DI MILANO;Lombardia;Marelli Turkish Kebap-Pizza;2015;2015-04-26T18:49:53Z;3431213683;9.2277077;45.5234067
SESTO SAN GIOVANNI;CITTA' METROPOLITANA DI MILANO;Lombardia;Percin Ayasofya Doner Kebab;2015;2015-08-15T20:53:22Z;3699082770;9.2318312;45.5342271
SETTIMO MILANESE;CITTA' METROPOLITANA DI MILANO;Lombardia;;2010;2010-11-09T15:56:44Z;983485050;9.06706209999999;45.4638227
SETTIMO MILANESE;CITTA' METROPOLITANA DI MILANO;Lombardia;;2011;2011-12-29T10:08:18Z;1566925889;9.0656978;45.4728562
SETTIMO MILANESE;CITTA' METROPOLITANA DI MILANO;Lombardia;Santa Maria;2014;2014-06-29T18:51:39Z;2939473199;9.05493049999999;45.478971
VERMEZZO;CITTA' METROPOLITANA DI MILANO;Lombardia;Mediterranea Di Lanteri Strati Renato Giuseppe;2013;2013-02-27T00:32:04Z;569347653;8.97999929999999;45.3947002
VERMEZZO;CITTA' METROPOLITANA DI MILANO;Lombardia;"pizzeria-kebab """"la favola""""";2009;2009-11-23T16:08:36Z;569347673;8.9846663;45.3969226999999
VIGNATE;CITTA' METROPOLITANA DI MILANO;Lombardia;;2013;2013-12-05T09:12:50Z;2566001621;9.37417059999999;45.4952147999999
VITTUONE;CITTA' METROPOLITANA DI MILANO;Lombardia;Burger King;2015;2015-05-10T21:11:12Z;3509149292;8.9631399;45.4825394
BARANZATE;CITTA' METROPOLITANA DI MILANO;Lombardia;Spizzico;2009;2009-10-26T21:27:42Z;540699212;9.1155174;45.5231879999999
AZZANO SAN PAOLO;BERGAMO;Lombardia;Fantasy 3;2013;2013-02-24T18:20:40Z;889484148;9.6752356;45.6606675
AZZANO SAN PAOLO;BERGAMO;Lombardia;King Pizza;2013;2013-09-28T20:56:27Z;889484172;9.6741419;45.6603143999999
BERGAMO;BERGAMO;Lombardia;Al Villaggio;2010;2010-03-01T10:10:08Z;657920420;9.6439886;45.6813764999999
BERGAMO;BERGAMO;Lombardia;Fantabosco;2015;2015-10-29T10:37:52Z;3808162939;9.6741742;45.6832970999999
BERGAMO;BERGAMO;Lombardia;La Piadineria;2014;2014-10-22T06:27:14Z;3143305519;9.6879349;45.6950766
BERGAMO;BERGAMO;Lombardia;L'Hamburgheria di Eataly;2015;2015-10-12T10:44:42Z;2347025962;9.6655066;45.6939155999999
BERGAMO;BERGAMO;Lombardia;polentOne;2015;2015-09-15T06:38:26Z;1501477263;9.6843254;45.7056552999999
BERGAMO;BERGAMO;Lombardia;PolentOne;2015;2015-06-01T07:30:40Z;1697256826;9.6650154;45.7030321
BREMBATE DI SOPRA;BERGAMO;Lombardia;;2015;2015-04-07T19:42:52Z;3443449033;9.5793832;45.7170471
BREMBATE DI SOPRA;BERGAMO;Lombardia;Crema e gusto;2015;2015-04-20T19:17:04Z;3468163502;9.5793832;45.7170471
BREMBATE DI SOPRA;BERGAMO;Lombardia;Il Girasole;2015;2015-03-31T18:40:37Z;3429123514;9.5839732;45.7256837999999
BREMBATE DI SOPRA;BERGAMO;Lombardia;Il sorriso;2015;2015-04-20T19:17:04Z;3468163505;9.5792234;45.7174125
